Time,Alpha_L1,Alpha_L2,Alpha_R1,Alpha_R2,AVz,Ay,Bk_Stat,Fx_L1,Fx_L2,Fx_R1,Fx_R2,Fy_L1,Fy_L2,Fy_R1,Fy_R2,Fz_L1,Fz_L2,Fz_R1,Fz_R2,GearStat,Lat_Targ,Lat_Veh,Pitch,PitchGL1,PitchGL2,PitchGR1,PitchGR2,PitchO1,Roll,RollGL1,RollGL2,RollGR1,RollGR2,RollO_1,Roll_E,Roll_L1,Roll_L2,Roll_R1,Roll_R2,Rot_L1,Rot_L2,Rot_R1,Rot_R2,Station,Steer_L1,Steer_R1,Steer_SW,VisO_1,Vx,VxTarget,Vxz_Fwd,Xctc_L1,Xctc_L2,Xctc_R1,Xctc_R2,Xo,X_L1,X_L2,X_Obj_1,X_R1,X_R2,Yaw,YawO_1,Yaw_L1,Yaw_L2,Yaw_R1,Yaw_R2,Yctc_L1,Yctc_L2,Yctc_R1,Yctc_R2,Yo,Y_L1,Y_L2,Y_Obj_1,Y_R1,Y_R2,Zgnd_L1,Zgnd_L2,Zgnd_R1,Zgnd_R2,Zo,Z_L1,Z_L2,Z_Obj_1,Z_R1,Z_R2
0, 8.36383362954e-18, -0, -8.36383362954e-18, -0, 0, 1.90400798362e-20, 0, -2.629323907209e-11, 0, -2.629323907209e-11, 0, -3.29522231126e-19, -0, 3.29522231126e-19, -0, 4705.658697437, 2654.825674813, 4705.658697437, 2654.825674813, 6, 0, 0, 0.1506696057217, -0, -0, -0, -0, -0, 0, 0, 0, 0, 0, 0, 0, 3.180543684351e-15, 0, -3.180543684351e-15, 0, 0.0004185266825604, 0.0004185266825604, 0.0004185266825604, 0.0004185266825604, 0, 0, 0, 0, 1, 120, 120, 120, 0.0008546452433101, -2.909135293117, 0.0008546452433101, -2.909135293117, 0, 0.0008546452433101, -2.909135293117, 16.66666666667, 0.0008546452433101, -2.909135293117, 0, 0, -3.195270793007e-15, 0, 3.195270793007e-15, 0, 0.8375, 0.8375, -0.8375, -0.8375, 0, 0.8375, 0.8375, 0, -0.8375, -0.8375, -0, -0, -0, -0, -0.00855730425281, 0.3164415720245, 0.3240939340492, 0, 0.3164415720245, 0.3240939340492
0.025, -0.0004739076713218, 0.0003516402087003, 0.0004739076713215, -0.0003516402086887, 4.233069647581e-15, -3.876483251546e-16, 0, -29.30964393442, -14.58534914665, -29.30964393442, -14.58534914665, 0.3789426771414, -0.2124710698134, -0.378942677141, 0.2124710698073, 4687.875922975, 2659.398280475, 4687.875922975, 2659.398280475, 6, 0, -9.080910215004e-19, 0.1479306698059, -0, -0, -0, -0, -0, -6.678808465817e-17, 0, 0, 0, 0, 0, -6.678830726649e-17, -0.0005088177714873, 0.0003660162279762, 0.0005088177714872, -0.0003660162279765, 0.4083855560449, 0.4083983879362, 0.4083855560449, 0.4083983879362, 0.8332540316203, 0.0002919159484006, -0.0002919159484006, -5.400269739505e-16, 1, 119.9694695654, 120, 119.9690474681, 0.8340904563374, -2.075898176878, 0.8340904563374, -2.075898176878, 0.8332540316203, 0.834090456323, -2.075898176884, 17.49562173553, 0.834090456323, -2.075898176884, 3.4275020834e-17, 0, 0.0002932306293212, -0.0001586793972846, -0.0002932306293211, 0.0001586793972719, 0.8374983368451, 0.8375019144769, -0.8374983368451, -0.8375019144769, -9.080910215004e-19, 0.8375011476081, 0.8374998442128, 0, -0.8375011476081, -0.8374998442128, -0, -0, -0, -0, -0.008449549613876, 0.3165079256481, 0.3240768720812, 0, 0.3165079256481, 0.3240768720812
0.05, -0.001378661958486, 0.0008357002877861, 0.001378661958485, -0.0008357002877762, 1.185686401398e-14, -2.975758571157e-16, 0, -38.36455937234, -14.7300434122, -38.36455937234, -14.7300434122, 1.327484072737, -0.5771376675973, -1.327484072737, 0.577137667593, 4637.892409234, 2669.243276014, 4637.892409234, 2669.243276014, 6, 0, -2.390321329119e-18, 0.1409656876923, -0, -0, -0, -0, -0, -2.87737251249e-16, 0, 0, 0, 0, 0, -2.877381221098e-16, -0.001753775250016, 0.001113829903211, 0.001753775250015, -0.001113829903212, 0.8162146368403, 0.8162562329245, 0.8162146368403, 0.8162562329245, 1.666326006282, 0.0009680337621421, -0.0009680337621421, -4.213866425447e-15, 1, 119.9372179434, 120, 119.9365444869, 1.667121056619, -1.242865612334, 1.667121056619, -1.242865612334, 1.666326006282, 1.667121056454, -1.242865612387, 18.32417940724, 1.667121056454, -1.242865612387, 2.420144428763e-16, 0, 0.000972351540909, -0.000481937537491, -0.0009723515409085, 0.0004819375374787, 0.8374942511621, 0.8375058268819, -0.8374942511621, -0.8375058268819, -2.390321329119e-18, 0.8375039449102, 0.8374995275419, 0, -0.8375039449102, -0.8374995275419, -0, -0, -0, -0, -0.008161673782644, 0.3166944311605, 0.3240401369686, 0, 0.3166944311605, 0.3240401369686
0.075, -0.002943234031349, 0.001312230733489, 0.002943234031335, -0.00131223073348, 1.955998234417e-14, -4.608492015193e-17, 0, -47.48141162283, -14.36853537731, -47.48141162281, -14.36853537731, 3.156328186071, -1.033022900429, -3.156328186068, 1.033022900425, 4583.733026238, 2672.196431023, 4583.733026238, 2672.196431023, 6, 0, -3.498885941516e-18, 0.1321699167232, -0, -0, -0, -0, -0, -6.191740606042e-16, 0, 0, 0, 0, 0, -6.191757080218e-16, -0.004124130996495, 0.002166094005221, 0.004124130996493, -0.002166094005222, 1.223900747223, 1.224006968088, 1.223900747223, 1.224006968088, 2.499186470405, 0.002255035308169, -0.002255035308156, -1.087948308739e-14, 1, 119.9038555627, 120, 119.9031592328, 2.499928486516, -0.4100546811259, 2.499928486516, -0.4100546811259, 2.499186470405, 2.499928485615, -0.410054681326, 19.15240303052, 2.499928485615, -0.410054681326, 6.107707479105e-16, 0, 0.002264554871242, -0.0009357695698262, -0.002264554871229, 0.0009357695698147, 0.8374863982642, 0.8375113311832, -0.8374863982642, -0.8375113311832, -3.498885941516e-18, 0.8375092083693, 0.8374990811094, 0, -0.8375092083693, -0.8374990811094, -0, -0, -0, -0, -0.007766871821626, 0.3168965177379, 0.3240291175631, 0, 0.3168965177379, 0.3240291175631
0.1, -0.004987747582828, 0.001426374459182, 0.004987747582827, -0.001426374459189, 2.791892069117e-14, 2.621540691414e-16, 0, -52.86766378364, -14.05130566759, -52.86766378361, -14.05130566761, 5.824357877315, -1.27466153258, -5.824357877311, 1.274661532579, 4545.592198606, 2664.190709011, 4545.592198606, 2664.190709011, 6, 0, -4.135810754011e-19, 0.123964304258, -0, -0, -0, -0, -0, -9.488441617349e-16, 0, 0, 0, 0, 0, -9.48846382557e-16, -0.007504651596726, 0.00294563780535, 0.007504651596724, -0.002945637805352, 1.631443782696, 1.631643653881, 1.631443782696, 1.631643653881, 3.331806955215, 0.004094031098962, -0.004094031098962, -2.228798011484e-14, 1, 119.8696609225, 120, 119.8691044239, 3.332498345794, 0.42251938079, 3.332498345794, 0.42251938079, 3.331806955215, 3.332498342815, 0.4225193804206, 19.98029368076, 3.332498342815, 0.4225193804206, 1.221788035948e-15, 0, 0.004110277660263, -0.001270494536467, -0.004110277660261, 0.001270494536469, 0.8374750481928, 0.8375154125674, -0.8374750481928, -0.8375154125674, -4.135810754011e-19, 0.837516574218, 0.8374987523453, 0, -0.837516574218, -0.8374987523453, 5.551115123126e-17, -0, 5.551115123126e-17, -0, -0.00735045766964, 0.3170388323603, 0.3240589894635, 0, 0.3170388323603, 0.3240589894635
0.125, -0.007202437634353, 0.001066335172733, 0.007202437634349, -0.001066335172728, 2.791997403025e-14, 2.459798015811e-16, 0, -53.8701664031, -13.89437674105, -53.87016640307, -13.89437674105, 8.983110664887, -1.111655978082, -8.983110664886, 1.111655978084, 4529.612591707, 2650.648597548, 4529.612591707, 2650.648597548, 6, 0, 6.057857350361e-18, 0.1175973108249, -0, -0, -0, -0, -0, -1.207730876829e-15, 0, 0, 0, 0, 0, -1.207733420672e-15, -0.01141212058671, 0.002911121986856, 0.01141212058671, -0.002911121986858, 2.038854770293, 2.039161169399, 2.038854770293, 2.039161169399, 4.164172273301, 0.006227220480256, -0.006227220480256, -3.559329896916e-14, 1, 119.835128552, 120, 119.8347512167, 4.164823102208, 1.254847872615, 4.164823102208, 1.254847872615, 4.164172273301, 4.164823095318, 1.254847872255, 20.80788772006, 4.164823095318, 1.254847872255, 1.919645007319e-15, 0, 0.006250656553763, -0.001253603392063, -0.006250656553759, 0.001253603392054, 0.8374617242067, 0.8375152417389, -0.8374617242067, -0.8375152417389, 6.057857350361e-18, 0.8375248835852, 0.8374987741674, 0, -0.8375248835852, -0.8374987741674, 5.551115123126e-17, -0, 5.551115123126e-17, -0, -0.006975132554805, 0.3170984541887, 0.3241095197401, 0, 0.3170984541887, 0.3241095197401
0.15, -0.00931101417701, 0.0004151449854046, 0.009311014177006, -0.0004151449854004, 2.500934828641e-14, 1.957053140239e-16, 0, -51.18977563785, -13.91143295625, -51.18977563786, -13.91143295625, 12.2058777625, -0.6156379555186, -12.2058777625, 0.6156379555182, 4531.547932144, 2640.036070343, 4531.547932144, 2640.036070343, 6, 0, 1.361663254961e-17, 0.1130218655136, -0, -0, -0, -0, -0, -1.386023328932e-15, 0, 0, 0, 0, 0, -1.386026025559e-15, -0.01531680164137, 0.002007885855125, 0.01531680164137, -0.002007885855128, 2.446148297823, 2.446558205632, 2.446148297823, 2.446558205632, 4.996282148385, 0.008367673777507, -0.008367673777507, -4.82226105496e-14, 1, 119.8007298411, 120, 119.8004784639, 4.996902763024, 2.086930156262, 4.996902763024, 2.086930156262, 4.996282148385, 4.9969027506, 2.08693015609, 21.63523749059, 4.9969027506, 2.08693015609, 2.575195588862e-15, 0, 0.008397904076406, -0.0008628910275917, -0.008397904076401, 0.0008628910275842, 0.8374482022383, 0.8375105245118, -0.8374482022383, -0.8375105245118, 1.361663254961e-17, 0.8375329697996, 0.837499164959, 0, -0.8375329697996, -0.837499164959, -0, -0, -0, -0, -0.006668084679394, 0.3170912277288, 0.3241491189415, 0, 0.3170912277288, 0.3241491189415
0.175, -0.01115478189199, -0.0002147874931481, 0.01115478189198, 0.0002147874931516, 2.225229352954e-14, 5.379030738759e-17, 0, -46.00855925203, -14.05461094771, -46.00855925203, -14.05461094771, 15.15199121578, -0.03096236433097, -15.15199121578, 0.03096236433316, 4542.87136097, 2637.313468562, 4542.87136097, 2637.313468562, 6, 0, 2.171096614279e-17, 0.1095010065311, -0, -0, -0, -0, -0, -1.513333356813e-15, 0, 0, 0, 0, 0, -1.513336120547e-15, -0.0188487870105, 0.0006653382579994, 0.0188487870105, -0.0006653382580024, 2.853337729368, 2.85383649809, 2.853337729368, 2.85383649809, 5.828145299012, 0.01031146610576, -0.01031146610576, -6.011260741342e-14, 1, 119.7668193519, 120, 119.7666141478, 5.828742228259, 2.918771249868, 5.828742228259, 2.918771249868, 5.828145299012, 5.828742209423, 2.918771249849, 22.46239726398, 5.828742209423, 2.918771249849, 3.188927996518e-15, 0, 0.01034750789941, -0.0002840042599757, -0.0103475078994, 0.0002840042599693, 0.8374357974731, 0.8375034973811, -0.8374357974731, -0.8375034973811, 2.171096614279e-17, 0.8375400981508, 0.8374997331323, 0, -0.8375400981508, -0.8374997331323, -0, -0, -0, -0, -0.006427101145092, 0.317048970303, 0.3241592780805, 0, 0.317048970303, 0.3241592780805
0.2, -0.01269892352975, -0.000588984901114, 0.01269892352974, 0.0005889849011172, 1.944129968414e-14, 1.794462108501e-16, 0, -39.58010969138, -14.25390271542, -39.58010969138, -14.25390271542, 17.64149092936, 0.4027909741856, -17.64149092936, -0.4027909741845, 4555.759853019, 2641.849062769, 4555.759853019, 2641.849062769, 6, 0, 3.011208060388e-17, 0.1062915083782, -0, -0, -0, -0, -0, -1.507946917402e-15, 0, 0, 0, 0, 0, -1.50794951223e-15, -0.02185887380964, -0.0005354420446148, 0.02185887380964, 0.0005354420446117, 3.26043271632, 3.260999257026, 3.26043271632, 3.260999257026, 6.659772476285, 0.01197370368361, -0.01197370368361, -7.020761138193e-14, 1, 119.733609927, 120, 119.7333950211, 6.660348154823, 3.750378367956, 6.660348154823, 3.750378367956, 6.659772476285, 6.660348129464, 3.750378367944, 23.28941067365, 6.660348129464, 3.750378367944, 3.704988491926e-15, 0, 0.01201427553614, 0.0002327865874649, -0.01201427553613, -0.0002327865874702, 0.837425094315, 0.8374972023943, -0.837425094315, -0.8374972023943, 3.011208060388e-17, 0.8375460331053, 0.837500231578, 0, -0.8375460331053, -0.837500231578, -5.551115123126e-17, -5.551115123126e-17, -5.551115123126e-17, -5.551115123126e-17, -0.006234593606576, 0.3170008730012, 0.3241423542292, 0, 0.3170008730012, 0.3241423542292
0.225, -0.01399151537523, -0.0006492581922745, 0.01399151537522, 0.0006492581922646, 1.707990878704e-14, 2.059710739751e-16, 0, -31.80727757787, -14.46153025984, -31.80727757787, -14.46153025984, 19.63394517005, 0.5720164225485, -19.63394517005, -0.5720164225463, 4565.493107283, 2649.531006156, 4565.493107283, 2649.531006156, 6, 0, 4.042164790959e-17, 0.1030002403466, -0, -0, -0, -0, -0, -1.344010193736e-15, 0, 0, 0, 0, 0, -1.344012365459e-15, -0.02437565863179, -0.00120492767761, 0.02437565863179, 0.001204927677607, 3.667439482189, 3.668049875201, 3.667439482189, 3.668049875201, 7.49117238761, 0.01336712547264, -0.01336712547264, -7.94690598094e-14, 1, 119.7012102083, 120, 119.7009677602, 7.49172700111, 4.581758448003, 7.49172700111, 4.581758448003, 7.49117238761, 7.491726969547, 4.581758447942, 24.11630679874, 7.491726969547, 4.581758447942, 4.169439941142e-15, 0, 0.0134109670794, 0.0005200787460358, -0.0134109670794, -0.0005200787460274, 0.8374160461526, 0.8374936876847, -0.8374160461526, -0.8374936876847, 4.042164790959e-17, 0.8375508941287, 0.8375005037811, 0, -0.8375508941287, -0.8375005037811, -0, -5.551115123126e-17, -0, -5.551115123126e-17, -0.006070304276387, 0.3169645492733, 0.3241136902039, 0, 0.3169645492733, 0.3241136902039
0.25, -0.01511383648489, -0.0004770913355502, 0.01511383648489, 0.0004770913355401, 1.432144514431e-14, 4.204099484894e-16, 0, -22.99391401475, -14.67550536567, -22.99391401475, -14.67550536567, 21.18965274815, 0.4996259760382, -21.18965274815, -0.4996259760346, 4570.457229683, 2656.317568248, 4570.457229683, 2656.317568248, 6, 0, 5.147504236807e-17, 0.09955359008112, -0, -0, -0, -0, -0, -1.113922526803e-15, 0, 0, 0, 0, 0, -1.113924208293e-15, -0.02652224405986, -0.001271553638279, 0.02652224405986, 0.001271553638276, 4.074367756835, 4.074991621129, 4.074367756835, 4.074991621129, 8.32235213352, 0.01455798253912, -0.01455798253912, -8.75392591963e-14, 1, 119.6698480192, 120, 119.669583589, 8.322885301411, 5.412918250629, 8.322885301411, 5.412918250629, 8.32235213352, 8.322885264015, 5.412918250561, 24.94312763199, 8.322885264015, 5.412918250561, 4.566725149519e-15, 0, 0.0146040879679, 0.0005475861908026, -0.01460408796789, -0.0005475861907934, 0.8374082498047, 0.8374933341054, -0.8374082498047, -0.8374933341054, 5.147504236807e-17, 0.8375549642769, 0.837500526533, 0, -0.8375549642769, -0.837500526533, -0, -0, -0, -0, -0.005918135840114, 0.316946021156, 0.3240883672028, 0, 0.316946021156, 0.3240883672028
0.275, -0.01614185148952, -0.0001677099529959, 0.01614185148953, 0.0001677099529985, 1.305907416617e-14, 5.16628564811e-16, 0, 2.90630239933, -15.09399119191, 2.90630239933, -15.09399119191, 22.23362808923, 0.2722134718568, -22.23362808923, -0.272213471854, 4570.994230942, 2660.495920159, 4570.994230942, 2660.495920159, 6, 0, 6.405817106888e-17, 0.09598370207714, -0, -0, -0, -0, -0, -8.18328578265e-16, 0, 0, 0, 0, 0, -8.183297265455e-16, -0.02844366318133, -0.0008812568504265, 0.02844366318133, 0.0008812568504249, 4.481242856897, 4.481828192116, 4.481242856897, 4.481828192116, 9.153319943241, 0.01561954079157, -0.01561954079158, -9.46457891995e-14, 1, 119.6402222575, 120, 119.6399350127, 9.153832078367, 6.243865986828, 9.153832078367, 6.243865986828, 9.153319943241, 9.153832035342, 6.243865986795, 25.7699775839, 9.153832035342, 6.243865986795, 4.90717539974e-15, 0, 0.01566721247989, 0.0003785997618613, -0.01566721247989, -0.0003785997618642, 0.83740119673, 0.8374953775295, -0.83740119673, -0.8374953775295, 6.405817106888e-17, 0.8375585390197, 0.8375003620389, 0, -0.8375585390197, -0.8375003620389, -0, 5.551115123126e-17, -0, 5.551115123126e-17, -0.00576764462171, 0.3169440123219, 0.324072776379, 0, 0.3169440123219, 0.324072776379
0.3, -0.01714348419247, 0.0002857249024129, 0.01714348419246, -0.0002857249024231, 1.088377620484e-14, 4.045497848106e-16, 0, 53.54415959552, -16.05180212153, 53.54415959552, -16.05180212153, 24.79889930908, -0.08214379621413, -24.79889930908, 0.08214379621698, 4567.216662386, 2664.287721761, 4567.216662386, 2664.287721761, 6, 0, 7.941350628979e-17, 0.09199347518949, -0, -0, -0, -0, -0, -4.197631466918e-16, 0, 0, 0, 0, 0, -4.197636877495e-16, -0.0302789890806, -0.0001353017858524, 0.0302789890806, 0.0001353017858515, 4.888164587095, 4.888568137584, 4.888164587095, 4.888568137584, 9.984100219131, 0.0166225711492, -0.0166225711492, -1.011584939413e-13, 1, 119.6152694938, 120, 119.6149187667, 9.984590336176, 7.074624196658, 9.984590336176, 7.074624196658, 9.984100219131, 9.984590287438, 7.074624196657, 26.59728338118, 9.984590287438, 7.074624196657, 5.205586180089e-15, 0, 0.01667120823206, 5.675714515253e-05, -0.01667120823205, -5.675714514212e-05, 0.8373944694189, 0.8374992847581, -0.8373944694189, -0.8374992847581, 7.941350628979e-17, 0.8375619716589, 0.8375000500102, 0, -0.8375619716589, -0.8375000500102, 5.551115123126e-17, -0, 5.551115123126e-17, -0, -0.005608119682817, 0.3169581025223, 0.324058627903, 0, 0.3169581025223, 0.324058627903
0.325, -0.01819685433513, 0.000983158549163, 0.01819685433513, -0.0009831585491603, 8.432205948069e-15, 4.086938251539e-16, 0, 109.7951400812, -17.23805375584, 109.7951400812, -17.23805375584, 26.66327678493, -0.6227737445982, -26.66327678493, 0.6227737446016, 4558.769963629, 2671.565019297, 4558.769963629, 2671.565019297, 6, 0, 9.631472275958e-17, 0.08702365938628, -0, -0, -0, -0, -0, 1.089614980447e-17, 0, 0, 0, 0, 0, 1.089616237266e-17, -0.03215262878691, 0.001038550775199, 0.03215262878691, -0.001038550775199, 5.295199925479, 5.295229656714, 5.295199925479, 5.295229656714, 10.81473790263, 0.01764751265741, -0.01764751265741, -1.067440766112e-13, 1, 119.5967653157, 120, 119.5963088338, 10.81520076366, 7.905234725046, 10.81520076366, 7.905234725046, 10.81473790263, 10.81520070872, 7.905234725, 27.42533635177, 10.81520070872, 7.905234725, 5.448298138453e-15, 0, 0.01769636805375, -0.0004491373421813, -0.01769636805374, 0.0004491373421795, 0.8373875129602, 0.8375054292644, -0.8373875129602, -0.8375054292644, 9.631472275958e-17, 0.8375653977899, 0.8374995558276, 0, -0.8375653977899, -0.8374995558276, -0, -0, -0, -0, -0.005428432507656, 0.3169896144031, 0.3240314737554, 0, 0.3169896144031, 0.3240314737554
0.35, -0.01935749954305, 0.002022692965745, 0.01935749954304, -0.002022692965742, 6.99603438114e-15, 2.58340708401e-16, 0, 160.5419563711, -18.3548070631, 160.5419563711, -18.3548070631, 28.38391798926, -1.449508653949, -28.38391798926, 1.449508653951, 4546.638493168, 2682.929641784, 4546.638493168, 2682.929641784, 6, 0, 1.147382161633e-16, 0.08078659351278, -0, -0, -0, -0, -0, 4.650541489149e-16, 0, 0, 0, 0, 0, 4.650546111972e-16, -0.03416965439707, 0.00284133724807, 0.03416965439707, -0.002841337248069, 5.702369206497, 5.701835228349, 5.702369206497, 5.701835228349, 11.64528072623, 0.01875756329214, -0.01875756329214, -1.114576722601e-13, 1, 119.5846153257, 120, 119.5840491076, 11.64570879422, 8.735743942199, 11.64570879422, 8.735743942199, 11.64528072623, 11.64570873216, 8.735743941856, 28.25417643561, 11.64570873216, 8.735743941856, 5.639149974182e-15, 0, 0.01880576091395, -0.001225326836832, -0.01880576091394, 0.00122532683683, 0.8373799483444, 0.8375148542526, -0.8373799483444, -0.8375148542526, 1.147382161633e-16, 0.8375690193875, 0.8374987874111, 0, -0.8375690193875, -0.8374987874111, -0, -0, -0, -0, -0.005224011826024, 0.3170348746172, 0.3239890681024, 0, 0.3170348746172, 0.3239890681024
0.375, -0.02064479314039, 0.003385317570297, 0.0206447931404, -0.003385317570294, 4.568180933875e-15, 1.201025098692e-16, 0, 201.358446785, -19.25874106173, 201.358446785, -19.25874106173, 30.2086973444, -2.591977798503, -30.2086973444, 2.591977798505, 4533.306209469, 2695.344983319, 4533.306209469, 2695.344983319, 6, 0, 1.339702694451e-16, 0.07351087303232, -0, -0, -0, -0, -0, 9.084227777362e-16, 0, 0, 0, 0, 0, 9.08423525417e-16, -0.03638753565719, 0.005391342070983, 0.0363875356572, -0.005391342070981, 6.109665701144, 6.108405640645, 6.109665701144, 6.108405640645, 12.47576770793, 0.01998726264556, -0.01998726264557, -1.155013865229e-13, 1, 119.5778501264, 120, 119.5772124469, 12.47615444803, 9.5661923587, 12.47615444803, 9.5661923587, 12.47576770793, 12.47615437762, 9.566192357464, 29.08371388111, 12.47615437762, 9.566192357464, 5.790294383481e-15, 0, 0.02003396457981, -0.002321638081355, -0.02003396457981, 0.002321638081354, 0.8373715591869, 0.8375281637806, -0.8373715591869, -0.8375281637806, 1.339702694451e-16, 0.8375729340291, 0.8374976818473, 0, -0.8375729340291, -0.8374976818473, -0, -0, -0, -0, -0.004999669311881, 0.3170846143781, 0.3239427411654, 0, 0.3170846143781, 0.3239427411654
0.4, -0.02203725610582, 0.00493681774843, 0.02203725610581, -0.004936817748427, 3.710264830439e-15, 3.934529430552e-16, 0, 232.4822445451, -19.93364033741, 232.4822445451, -19.93364033741, 32.18879781941, -3.963480986369, -32.18879781941, 3.963480986372, 4521.584935747, 2705.097589059, 4521.584935747, 2705.097589059, 6, 0, 1.535696877124e-16, 0.06577575113669, -0, -0, -0, -0, -0, 1.332612766166e-15, 0, 0, 0, 0, 0, 1.3326136443e-15, -0.0387976013261, 0.008579394246007, 0.0387976013261, -0.008579394246005, 6.517071559974, 6.514957459968, 6.517071559974, 6.514957459968, 13.30622699518, 0.02133246955635, -0.02133246955635, -1.18585136958e-13, 1, 119.5752921309, 120, 119.574638291, 13.30656915641, 10.39661132503, 13.30656915641, 10.39661132503, 13.30622699518, 13.30656907629, 10.3966113219, 29.9138156467, 13.30656907629, 10.3966113219, 5.889186047054e-15, 0, 0.02137702341602, -0.003689669973429, -0.02137702341601, 0.003689669973428, 0.8373623698188, 0.8375447709546, -0.8373623698188, -0.8375447709546, 1.535696877124e-16, 0.8375771119882, 0.8374962696461, 0, -0.8375771119882, -0.8374962696461, -0, -0, -0, -0, -0.00476665911981, 0.317128341713, 0.3239063486484, 0, 0.317128341713, 0.3239063486484
0.425, -0.02348495298565, 0.006512601917374, 0.02348495298564, -0.006512601917371, 4.601505038484e-15, 5.312191984353e-16, 0, 255.5206309595, -20.4224091714, 255.5206309595, -20.4224091714, 34.2961435572, -5.412564273878, -34.29614355719, 5.41256427388, 4513.292551534, 2710.498737438, 4513.292551534, 2710.498737438, 6, 0, 1.760014926876e-16, 0.05816629067558, -0, -0, -0, -0, -0, 1.795169569524e-15, 0, 0, 0, 0, 0, 1.795170494591e-15, -0.04133301359865, 0.01211477519591, 0.04133301359865, -0.01211477519591, 6.924567999613, 6.921503058974, 6.924567999613, 6.921503058974, 14.136678876, 0.02275557627192, -0.02275557627192, -1.21668298714e-13, 1, 119.5758905436, 120, 119.5752641601, 14.13697665327, 11.22702411746, 14.13697665327, 11.22702411746, 14.136678876, 14.13697656224, 11.22702411124, 30.7443544538, 14.13697656224, 11.22702411124, 5.979317544329e-15, 0, 0.02279754901436, -0.005203524677471, -0.02279754901435, 0.00520352467747, 0.8373526263533, 0.8375631480823, -0.8373526263533, -0.8375631480823, 1.760014926876e-16, 0.8375814241796, 0.8374946647058, 0, -0.8375814241796, -0.8374946647058, -0, -5.551115123126e-17, -0, -5.551115123126e-17, -0.004537079609322, 0.3171592736239, 0.3238861915007, 0, 0.3171592736239, 0.3238861915007
0.45, -0.0249308564566, 0.008002049944984, 0.02493085645659, -0.008002049944995, 7.216753702225e-15, 5.794942251519e-16, 0, 272.4537386905, -20.78212568567, 272.4537386905, -20.78212568567, 36.46174496174, -6.811119226847, -36.46174496173, 6.81111922685, 4508.727311793, 2712.372318729, 4508.727311793, 2712.372318729, 6, 0, 1.99146947182e-16, 0.05102808430639, -0, -0, -0, -0, -0, 1.945871352029e-15, 0, 0, 0, 0, 0, 1.945872123745e-15, -0.04389935255132, 0.01568533564932, 0.04389935255132, -0.01568533564931, 7.332139252413, 7.328051648509, 7.332139252413, 7.328051648509, 14.96713920444, 0.02420274680543, -0.02420274680543, -1.255919483373e-13, 1, 119.5788140007, 120, 119.5782334491, 14.96739493679, 12.05744816375, 14.96739493679, 12.05744816375, 14.96713920444, 14.96739483397, 12.05744815334, 31.57522718349, 14.96739483397, 12.05744815334, 6.112634450948e-15, 0, 0.02424185353672, -0.006729193345545, -0.02424185353671, 0.006729193345558, 0.8373426866577, 0.8375816673414, -0.8373426866577, -0.8375816673414, 1.99146947182e-16, 0.8375857034331, 0.8374930019278, 0, -0.8375857034331, -0.8374930019278, -0, -0, -0, -0, -0.004319473195023, 0.3171762975293, 0.3238791956294, 0, 0.3171762975293, 0.3238791956294
0.475, -0.02632957321357, 0.009376205762345, 0.02632957321356, -0.009376205762355, 8.312492383069e-15, 5.437974415647e-16, 0, 284.9738656911, -21.05691424658, 284.9738656911, -21.05691424658, 38.60856058903, -8.104714546294, -38.60856058903, 8.104714546296, 4507.008890104, 2712.774047356, 4507.008890104, 2712.774047356, 6, 0, 2.190906562541e-16, 0.04442946183277, -0, -0, -0, -0, -0, 1.257141804341e-15, 0, 0, 0, 0, 0, 1.257142182305e-15, -0.04640928485571, 0.01909328077981, 0.04640928485572, -0.01909328077981, 7.7397736327, 7.734610282484, 7.7397736327, 7.734610282484, 15.79762127975, 0.02562367363202, -0.02562367363202, -1.303878500746e-13, 1, 119.5834466145, 120, 119.5829091005, 15.79783786751, 12.88789688859, 15.79783786751, 12.88789688859, 15.79762127975, 15.79783775245, 12.88789687317, 32.40635865482, 15.79783775245, 12.88789687317, 6.304348006061e-15, 0, 0.0256596689815, -0.00818254496586, -0.02565966898149, 0.008182544965872, 0.8373328895534, 0.8375993040404, -0.8373328895534, -0.8375993040404, 2.190906562541e-16, 0.837589805928, 0.8374913748368, 0, -0.837589805928, -0.8374913748368, -0, -0, -0, -0, -0.004117370336404, 0.3171826985984, 0.3238776907953, 0, 0.3171826985984, 0.3238776907953
0.5, -0.02765587946373, 0.01066164513147, 0.02765587946373, -0.01066164513148, 6.124357700914e-15, 8.977937786705e-17, 0, 294.4342981185, -21.27410163751, 294.4342981185, -21.27410163751, 40.67666607408, -9.303521638626, -40.67666607408, 9.303521638628, 4506.828699882, 2713.408489599, 4506.828699882, 2713.408489599, 6, 0, 2.484074193802e-16, 0.03827449805113, -0, -0, -0, -0, -0, 1.265269511915e-15, 0, 0, 0, 0, 0, 1.265269794226e-15, -0.04880475217275, 0.02228846836434, 0.04880475217275, -0.02228846836433, 8.147463243986, 8.14118447816, 8.147463243986, 8.14118447816, 16.62813621526, 0.02698434715663, -0.02698434715664, -1.357475207182e-13, 1, 119.5893519926, 120, 119.5888461782, 16.62831614828, 13.71838078105, 16.62831614828, 13.71838078105, 16.62813621526, 16.62831602088, 13.71838076007, 33.23769818445, 16.62831602088, 13.71838076007, 6.492653814068e-15, 0, 0.02701695554242, -0.009542875568043, -0.02701695554241, 0.009542875568056, 0.8373234672607, 0.8376158026074, -0.8373234672607, -0.8376158026074, 2.484074193802e-16, 0.8375936452289, 0.8374898127861, 0, -0.8375936452289, -0.8374898127861, -5.551115123126e-17, -0, -5.551115123126e-17, -0, -0.003930369169171, 0.3171833599311, 0.3238753169512, 0, 0.3171833599311, 0.3238753169512
0.525, -0.02890311008932, 0.01189560858518, 0.02890311008933, -0.01189560858518, 3.312901863539e-15, 1.65517285928e-16, 0, 301.7926618932, -21.44812086413, 301.7926618932, -21.44812086413, 42.63383197698, -10.44184468883, -42.63383197698, 10.44184468884, 4507.090587218, 2714.85311592, 4507.090587218, 2714.85311592, 6, 0, 2.814895532334e-16, 0.03244320995142, -0, -0, -0, -0, -0, 1.701953040488e-15, 0, 0, 0, 0, 0, 1.701953313335e-15, -0.05106132751706, 0.02531370238223, 0.05106132751706, -0.02531370238222, 8.555203133366, 8.547778546451, 8.555203133366, 8.547778546451, 17.45869280127, 0.02826985196578, -0.0282698519658, -1.399295993888e-13, 1, 119.5962300577, 120, 119.5957468981, 17.45883796774, 14.54890799335, 17.45883796774, 14.54890799335, 17.45869280127, 17.45883782813, 14.54890796631, 34.06921320379, 17.45883782813, 14.54890796631, 6.603527275077e-15, 0, 0.02829876951373, -0.01082898235019, -0.02829876951374, 0.01082898235019, 0.8373145247217, 0.8376313886398, -0.8373145247217, -0.8376313886398, 2.814895532334e-16, 0.8375971939763, 0.837488300489, 0, -0.8375971939763, -0.837488300489, -0, -5.551115123126e-17, -0, -5.551115123126e-17, -0.003756214224859, 0.3171823718531, 0.3238699194513, 0, 0.3171823718531, 0.3238699194513
0.55, -0.03007602160182, 0.01309566778443, 0.03007602160181, -0.01309566778443, 2.526244018557e-15, 1.58720892314e-16, 0, 307.6523471766, -21.58664018492, 307.6523471766, -21.58664018492, 44.47274161155, -11.54306969839, -44.47274161155, 11.54306969839, 4507.190472935, 2716.745121662, 4507.190472935, 2716.745121662, 6, 0, 3.1318827787e-16, 0.02687222631505, -0, -0, -0, -0, -0, 1.986810302456e-15, 0, 0, 0, 0, 0, 1.986810520974e-15, -0.05317962690181, 0.02822575664716, 0.05317962690181, -0.02822575664716, 8.962990219128, 8.954395811492, 8.962990219128, 8.954395811492, 18.28929758577, 0.02947970358349, -0.02947970358349, -1.43331097803e-13, 1, 119.6038723786, 120, 119.6034091824, 18.28940954478, 15.37948478008, 18.28940954478, 15.37948478008, 18.28929758577, 18.28940939318, 15.37948474648, 34.90088219444, 18.28940939318, 15.37948474648, 6.677361095221e-15, 0, 0.02950464854591, -0.01206531980951, -0.0295046485459, 0.01206531980951, 0.837306069816, 0.8376463593797, -0.837306069816, -0.8376463593797, 3.1318827787e-16, 0.8376004653641, 0.8374868140403, 0, -0.8376004653641, -0.8374868140403, -0, -0, -0, -0, -0.003592533486627, 0.3171819884779, 0.3238628520385, 0, 0.3171819884779, 0.3238628520385
0.575, -0.03118332490807, 0.01425515844333, 0.03118332490809, -0.01425515844333, 1.349865195988e-15, 3.315902087975e-16, 0, 312.3582722676, -21.69525067221, 312.3582722676, -21.69525067221, 46.20114309963, -12.60786071328, -46.20114309963, 12.60786071328, 4506.969433936, 2718.431926446, 4506.969433936, 2718.431926446, 6, 0, 3.378751536374e-16, 0.02156055851351, -0, -0, -0, -0, -0, 1.371775891869e-15, 0, 0, 0, 0, 0, 1.371775988994e-15, -0.05517251307456, 0.03104622353045, 0.05517251307457, -0.03104622353045, 9.370822389904, 9.361038816698, 9.370822389904, 9.361038816698, 19.11995533014, 0.03062062421093, -0.03062062421095, -1.457414800081e-13, 1, 119.6121256451, 120, 119.6116843504, 19.12003563484, 16.21011592076, 19.12003563484, 16.21011592076, 19.11995533014, 19.1200354715, 16.21011588015, 35.73268926769, 19.1200354715, 16.21011588015, 6.722404600168e-15, 0, 0.03064138795091, -0.0132611904714, -0.03064138795092, 0.01326119047141, 0.8372980616102, 0.8376608305236, -0.8372980616102, -0.8376608305236, 3.378751536374e-16, 0.8376034903066, 0.8374853459829, 0, -0.8376034903066, -0.8374853459829, -0, -5.551115123126e-17, -0, -5.551115123126e-17, -0.00343767241949, 0.3171828028183, 0.3238565497455, 0, 0.3171828028183, 0.3238565497455
0.6, -0.03223287054559, 0.01535585909963, 0.0322328705456, -0.01535585909963, 7.853750133347e-15, 2.243297052663e-16, 0, 316.0988647279, -21.77925134662, 316.0988647279, -21.77925134662, 47.83174066343, -13.62210572226, -47.83174066343, 13.62210572226, 4506.517043002, 2719.5095368, 4506.517043002, 2719.5095368, 6, 0, 3.732924246891e-16, 0.01653436436244, -0, -0, -0, -0, -0, 1.488355788019e-15, 0, 0, 0, 0, 0, 1.488355849992e-15, -0.05705482667257, 0.03375722974069, 0.05705482667258, -0.03375722974068, 9.778697923237, 9.767709525626, 9.778697923237, 9.767709525626, 19.95066961103, 0.03170064319628, -0.03170064319629, -1.505616074542e-13, 1, 119.6208670058, 120, 119.620450487, 19.95071995061, 17.04080511314, 19.95071995061, 17.04080511314, 19.95066961103, 19.95071977577, 17.04080506516, 36.56462106756, 19.95071977577, 17.04080506516, 6.865083939037e-15, 0, 0.03171710935006, -0.01440911507746, -0.03171710935006, 0.01440911507746, 0.8372904500796, 0.8376747147866, -0.8372904500796, -0.8376747147866, 3.732924246891e-16, 0.8376063007222, 0.8374839090251, 0, -0.8376063007222, -0.8374839090251, -0, -0, -0, -0, -0.003290761876785, 0.317184480638, 0.3238525201462, 0, 0.317184480638, 0.3238525201462
0.625, -0.03322987391734, 0.01638284655309, 0.03322987391735, -0.01638284655308, 1.0000180741e-14, 1.137946590699e-16, 0, 318.9862824055, -21.84343143172, 318.9862824055, -21.84343143172, 49.37575812695, -14.57106277905, -49.37575812695, 14.57106277905, 4505.988465853, 2719.978516986, 4505.988465853, 2719.978516986, 6, 0, 4.162282926084e-16, 0.01181225074678, -0, -0, -0, -0, -0, 2.12278647864e-15, 0, 0, 0, 0, 0, 2.122786523753e-15, -0.05883812535248, 0.03632470796147, 0.05883812535248, -0.03632470796146, 10.1866151916, 10.17440948335, 10.1866151916, 10.17440948335, 20.78144328361, 0.03272601787229, -0.0327260178723, -1.57171847917e-13, 1, 119.6299904317, 120, 119.6296000074, 20.78146544091, 17.87155526845, 20.78146544091, 17.87155526845, 20.78144328361, 20.7814652548, 17.87155521292, 37.39666550686, 20.7814652548, 17.87155521292, 7.075991254879e-15, 0, 0.03273814879511, -0.01549482991803, -0.03273814879511, 0.01549482991803, 0.8372831969052, 0.8376878417663, -0.8372831969052, -0.8376878417663, 4.162282926084e-16, 0.8376089217555, 0.8374825249773, 0, -0.8376089217555, -0.8374825249773, -5.551115123126e-17, -0, -5.551115123126e-17, -0, -0.003151442317393, 0.3171864429555, 0.3238507613452, 0, 0.3171864429555, 0.3238507613452
0.65, -0.03417709009207, 0.01733164912943, 0.03417709009207, -0.01733164912944, 7.393879875094e-15, 5.488847512505e-16, 0, 321.1056837979, -21.89141053736, 321.1056837979, -21.89141053736, 50.84066140102, -15.44834977419, -50.84066140102, 15.4483497742, 4505.507930555, 2720.089242286, 4505.507930555, 2720.089242286, 6, 0, 4.521845768808e-16, 0.007392404160129, -0, -0, -0, -0, -0, 1.761166620486e-15, 0, 0, 0, 0, 0, 1.761166635145e-15, -0.06052957120013, 0.03872317493798, 0.06052957120014, -0.03872317493798, 10.59457255457, 10.581139914, 10.59457255457, 10.581139914, 21.61227868621, 0.03370053909299, -0.03370053909301, -1.639069094053e-13, 1, 119.6394009233, 120, 119.6390360151, 21.61227442728, 18.70236867585, 21.61227442728, 18.70236867585, 21.61227868621, 21.61227423014, 18.70236861278, 38.22881146609, 21.61227423014, 18.70236861278, 7.31440126715e-15, 0, 0.03370834900886, -0.01650779703932, -0.03370834900886, 0.01650779703933, 0.837276280191, 0.8377000849457, -0.837276280191, -0.8377000849457, 4.521845768808e-16, 0.8376113706864, 0.8374812116737, 0, -0.8376113706864, -0.8374812116737, -0, 5.551115123126e-17, -0, 5.551115123126e-17, -0.003019586523471, 0.3171882262426, 0.3238503393126, 0, 0.3171882262426, 0.3238503393126
0.675, -0.03507567130791, 0.01820667397711, 0.0350756713079, -0.01820667397711, -2.360264970658e-15, 1.274612620025e-16, 0, 322.5376214003, -21.9254914098, 322.5376214004, -21.9254914098, 52.23051448422, -16.25647601363, -52.23051448423, 16.25647601364, 4505.148591757, 2720.102962267, 4505.148591757, 2720.102962267, 6, 0, 4.871720534225e-16, 0.003259195872403, -0, -0, -0, -0, -0, 1.273589895441e-15, 0, 0, 0, 0, 0, 1.273589897501e-15, -0.06213289540628, 0.04094633576102, 0.06213289540628, -0.04094633576101, 11.00256834328, 10.98790176163, 11.00256834328, 10.98790176163, 22.44317765073, 0.03462605447991, -0.03462605447991, -1.677118838183e-13, 1, 119.6490129844, 120, 119.6486721112, 22.44314865143, 19.53324706514, 22.44314865143, 19.53324706514, 22.44317765073, 22.44314844353, 19.53324699467, 39.06104877729, 22.44314844353, 19.53324699467, 7.395298663142e-15, 0, 0.0346295888856, -0.01744563177268, -0.03462958888559, 0.01744563177268, 0.8372696909725, 0.8377114157822, -0.8372696909725, -0.8377114157822, 4.871720534225e-16, 0.8376136588859, 0.8374799766774, 0, -0.8376136588859, -0.8374799766774, -0, -0, -0, -0, -0.002895146698554, 0.3171895575571, 0.3238502793823, 0, 0.3171895575571, 0.3238502793823
0.7, -0.03592596563809, 0.0190155262899, 0.0359259656381, -0.01901552628989, -5.633613236783e-15, -5.542945907581e-17, 0, 323.3635404913, -21.94710703973, 323.3635404914, -21.94710703973, 53.54720618192, -17.00220219536, -53.54720618192, 17.00220219536, 4504.945754548, 2720.148149531, 4504.945754548, 2720.148149531, 6, 0, 5.280515746011e-16, -0.0006043198586321, -0, -0, -0, -0, -0, 1.640668226208e-15, 0, 0, 0, 0, 0, 1.6406682263e-15, -0.0636497916884, 0.04300306436714, 0.06364979168841, -0.04300306436714, 11.41060088006, 11.39469570282, 11.41060088006, 11.39469570282, 23.27414145821, 0.03550325895866, -0.03550325895868, -1.687770724718e-13, 1, 119.6587506429, 120, 119.6584324802, 23.27408929949, 20.36419162865, 23.27408929949, 20.36419162865, 23.27414145821, 23.27408908115, 20.36419155097, 39.89336819156, 23.27408908115, 20.36419155097, 7.310998836321e-15, 0, 0.03550258762251, -0.01831233745168, -0.03550258762251, 0.01831233745168, 0.8372634279082, 0.8377218830102, -0.8372634279082, -0.8377218830102, 5.280515746011e-16, 0.8376157941985, 0.837478818882, 0, -0.8376157941985, -0.837478818882, 5.551115123126e-17, -0, 5.551115123126e-17, -0, -0.002778093985149, 0.3171903051942, 0.3238501022566, 0, 0.3171903051942, 0.3238501022566
0.725, -0.03672807174969, 0.01976428428427, 0.0367280717497, -0.01976428428427, -8.146112498395e-15, 6.283320739805e-17, 0, 323.6640101259, -21.95744512359, 323.6640101259, -21.95744512359, 54.79153478019, -17.69172247877, -54.79153478019, 17.69172247877, 4504.910190088, 2720.216770642, 4504.910190088, 2720.216770642, 6, 0, 5.681573833375e-16, -0.004209143298533, -0, -0, -0, -0, -0, 2.134574624729e-15, 0, 0, 0, 0, 0, 2.134574630489e-15, -0.06508103278912, 0.04490724170365, 0.06508103278913, -0.04490724170365, 11.81866850816, 11.80152215887, 11.81866850816, 11.80152215887, 24.10517084225, 0.03633233595538, -0.0363323359554, -1.683604454011e-13, 1, 119.6685475476, 120, 119.6682513252, 24.10509704462, 21.19520305243, 24.10509704462, 21.19520305243, 24.10517084225, 24.10509681619, 21.19520296776, 40.72576130407, 24.10509681619, 21.19520296776, 7.148201935655e-15, 0, 0.03632755497778, -0.01911398095403, -0.03632755497778, 0.01911398095403, 0.8372574929204, 0.8377315606793, -0.8372574929204, -0.8377315606793, 5.681573833375e-16, 0.837617782729, 0.8374777338662, 0, -0.837617782729, -0.8374777338662, -0, -5.551115123126e-17, -0, -5.551115123126e-17, -0.00266838094507, 0.3171904289963, 0.3238498379509, 0, 0.3171904289963, 0.3238498379509
0.75, -0.03748222361068, 0.02045602017855, 0.03748222361067, -0.02045602017856, -1.016680496409e-14, 3.404973116715e-16, 0, 323.5157178686, -21.95783853138, 323.5157178686, -21.95783853138, 55.96393239888, -18.32856781927, -55.96393239888, 18.32856781928, 4505.032395016, 2720.241475839, 4505.032395016, 2720.241475839, 6, 0, 5.961110566079e-16, -0.007560980234556, -0, -0, -0, -0, -0, 1.363527056113e-15, 0, 0, 0, 0, 0, 1.363527067985e-15, -0.06642725841158, 0.04666992997573, 0.06642725841158, -0.04666992997573, 12.22676962225, 12.20838132074, 12.22676962225, 12.20838132074, 24.93626606168, 0.03711341212616, -0.03711341212616, -1.65989940033e-13, 1, 119.678346678, 120, 119.6780719492, 24.93617211488, 22.02628157454, 24.93617211488, 22.02628157454, 24.93626606168, 24.93617187674, 22.02628148312, 41.55822049906, 24.93617187674, 22.02628148312, 6.922517135469e-15, 0, 0.03710464644047, -0.01985539234324, -0.03710464644045, 0.01985539234325, 0.8372518880194, 0.8377405081775, -0.8372518880194, -0.8377405081775, 5.961110566079e-16, 0.837619630023, 0.8374767182937, 0, -0.837619630023, -0.8374767182937, -0, -0, -0, -0, -0.002565896579926, 0.3171899644551, 0.3238497378052, 0, 0.3171899644551, 0.3238497378052
0.775, -0.03818907232564, 0.02109191894008, 0.03818907232564, -0.02109191894009, -1.076916523112e-14, 8.476085361987e-17, 0, 322.9894902001, -21.94979890871, 322.9894902001, -21.94979890871, 57.06497130427, -18.91419757391, -57.06497130427, 18.91419757391, 4505.284166381, 2720.17170326, 4505.284166381, 2720.17170326, 6, 0, 6.294858888759e-16, -0.01066503362367, -0, -0, -0, -0, -0, 1.093980226829e-15, 0, 0, 0, 0, 0, 1.093980245782e-15, -0.0676895527354, 0.04829727669385, 0.06768955273541, -0.04829727669385, 12.6349026944, 12.61527318457, 12.6349026944, 12.61527318457, 25.76742700593, 0.03784689153233, -0.03784689153233, -1.632817978844e-13, 1, 119.6880997212, 120, 119.6878459377, 25.76731437117, 22.85742706019, 25.76731437117, 22.85742706019, 25.76742700593, 25.76731412372, 22.85742696233, 42.39073894172, 25.76731412372, 22.85742696233, 6.661390365436e-15, 0, 0.03783429245467, -0.02053929878167, -0.03783429245465, 0.02053929878168, 0.8372466129056, 0.8377487594869, -0.8372466129056, -0.8377487594869, 6.294858888759e-16, 0.8376213418677, 0.8374757712243, 0, -0.8376213418677, -0.8374757712243, -0, -0, -0, -0, -0.002470428129971, 0.3171890168316, 0.3238499905276, 0, 0.3171890168316, 0.3238499905276
0.8, -0.0388498466645, 0.02167308836743, 0.0388498466645, -0.02167308836742, -1.164123576087e-14, -1.455735580444e-16, 0, 322.1493622358, -21.93483296974, 322.1493622358, -21.93483296974, 58.09576308718, -19.44964023733, -58.09576308718, 19.44964023733, 4505.624818777, 2720.003493903, 4505.624818777, 2720.003493903, 6, 0, 6.674917737616e-16, -0.01352994656217, -0, -0, -0, -0, -0, 1.327638771592e-15, 0, 0, 0, 0, 0, 1.327638808608e-15, -0.06886983280847, 0.04979264139551, 0.06886983280847, -0.04979264139551, 13.04306629048, 13.02219758869, 13.04306629048, 13.02219758869, 26.59865328754, 0.03853368162599, -0.038533681626, -1.604239305833e-13, 1, 119.6977662911, 120, 119.6975325639, 26.59852337725, 23.68863907471, 26.59852337725, 23.68863907471, 26.59865328754, 26.59852312095, 23.68863897073, 43.22331058809, 26.59852312095, 23.68863897073, 6.375675958781e-15, 0, 0.03851741962793, -0.02116723595601, -0.03851741962793, 0.02116723595601, 0.8372416633388, 0.8377563339735, -0.8372416633388, -0.8377563339735, 6.674917737616e-16, 0.8376229247904, 0.8374748929942, 0, -0.8376229247904, -0.8374748929942, -0, -0, -0, -0, -0.002381654910258, 0.3171877379549, 0.3238506109392, 0, 0.3171877379549, 0.3238506109392
0.825, -0.0394663482051, 0.02220160605154, 0.03946634820511, -0.02220160605153, -1.110361481863e-14, -3.007673365403e-16, 0, 321.0521354058, -21.91425321127, 321.0521354058, -21.91425321127, 59.05821450995, -19.93665716769, -59.05821450995, 19.93665716769, 4506.012479826, 2719.765993828, 4506.012479826, 2719.765993828, 6, 0, 7.060622697691e-16, -0.01616845543856, -0, -0, -0, -0, -0, 1.725873913686e-15, 0, 0, 0, 0, 0, 1.725873982404e-15, -0.06997098138495, 0.05115960694285, 0.06997098138495, -0.05115960694285, 13.45125907432, 13.4291542445, 13.45125907432, 13.4291542445, 27.42994429985, 0.03917527222565, -0.03917527222567, -1.576921656985e-13, 1, 119.7073130935, 120, 119.7070982413, 27.42979845371, 24.51991694152, 27.42979845371, 24.51991694152, 27.42994429985, 27.42979818899, 24.51991683179, 44.0559301667, 27.42979818899, 24.51991683179, 6.095393493749e-15, 0, 0.03915552847383, -0.02174082190107, -0.03915552847383, 0.02174082190107, 0.8372370305932, 0.837763251727, -0.8372370305932, -0.837763251727, 7.060622697691e-16, 0.8376243861998, 0.8374740835141, 0, -0.8376243861998, -0.8374740835141, -5.551115123126e-17, -0, -5.551115123126e-17, -0, -0.002299180581686, 0.3171862840736, 0.3238514903263, 0, 0.3171862840736, 0.3238514903263
0.85, -0.04004078883249, 0.02268048345429, 0.04004078883248, -0.02268048345428, -1.698608328101e-14, -1.791432016496e-16, 0, 319.7471539285, -21.88910710532, 319.7471539285, -21.88910710532, 59.95505335123, -20.37790260728, -59.95505335123, 20.37790260728, 4506.415231859, 2719.492760873, 4506.415231859, 2719.492760873, 6, 0, 7.402609943986e-16, -0.0185954052089, -0, -0, -0, -0, -0, 1.917521467928e-15, 0, 0, 0, 0, 0, 1.917521568917e-15, -0.07099669476984, 0.05240354130886, 0.07099669476984, -0.05240354130885, 13.85947980111, 13.83614275919, 13.85947980111, 13.83614275919, 28.26129924555, 0.03977364898785, -0.03977364898785, -1.538902988126e-13, 1, 119.7167130686, 120, 119.7165158269, 28.2611387177, 25.35125978421, 28.2611387177, 25.35125978421, 28.26129924555, 28.26113844502, 25.35125966912, 44.8885931104, 28.26113844502, 25.35125966912, 5.7683302946e-15, 0, 0.03975060902396, -0.02226241302507, -0.03975060902395, 0.02226241302507, 0.8372327021255, 0.8377695415677, -0.8372327021255, -0.8377695415677, 7.402609943986e-16, 0.8376257341586, 0.8374733413652, 0, -0.8376257341586, -0.8374733413652, -5.551115123126e-17, -0, -5.551115123126e-17, -0, -0.002222586429757, 0.3171847742834, 0.3238525034975, 0, 0.3171847742834, 0.3238525034975
0.875, -0.0405755470463, 0.02311304911717, 0.0405755470463, -0.02311304911717, -2.131549574055e-14, -1.803249834215e-16, 0, 318.2763882874, -21.86022243013, 318.2763882874, -21.86022243013, 60.78961468509, -20.77642761342, -60.78961468509, 20.77642761341, 4506.816668819, 2719.202767981, 4506.816668819, 2719.202767981, 6, 0, 7.613320224007e-16, -0.02082521792166, -0, -0, -0, -0, -0, 1.177038240495e-15, 0, 0, 0, 0, 0, 1.177038318244e-15, -0.07195112680939, 0.05353135110341, 0.0719511268094, -0.05353135110341, 14.26772730479, 14.24316265255, 14.26772730479, 14.24316265255, 29.09271715463, 0.04033108691944, -0.04033108691945, -1.456885493384e-13, 1, 119.7259445246, 120, 119.7257637331, 29.09254311536, 26.18266655847, 29.09254311536, 26.18266655847, 29.09271715463, 29.09254283516, 26.1826664384, 45.7212954509, 29.09254283516, 26.1826664384, 5.249649129174e-15, 0, 0.0403049375983, -0.02273499776787, -0.04030493759831, 0.02273499776788, 0.8372286631069, 0.8377752398727, -0.8372286631069, -0.8377752398727, 7.613320224007e-16, 0.8376269769131, 0.8374726639498, 0, -0.8376269769131, -0.8374726639498, -5.551115123126e-17, -0, -5.551115123126e-17, -0, -0.002151479166654, 0.3171832697943, 0.3238535796669, 0, 0.3171832697943, 0.3238535796669
0.9, -0.0410729453426, 0.02350239521801, 0.04107294534259, -0.023502395218, -1.875956777554e-14, -1.937205706743e-16, 0, 316.6749678088, -21.82829561893, 316.6749678088, -21.82829561893, 61.56549034964, -21.13513674459, -61.56549034964, 21.13513674459, 4507.214293118, 2718.898823258, 4507.214293118, 2718.898823258, 6, 0, 7.845367716965e-16, -0.02287045831993, -0, -0, -0, -0, -0, 8.218524757824e-16, 0, 0, 0, 0, 0, 8.218525412563e-16, -0.07283848873507, 0.05455037345766, 0.07283848873507, -0.05455037345766, 14.67600048481, 14.65021337127, 14.67600048481, 14.65021337127, 29.9241969061, 0.04084991611904, -0.04084991611904, -1.379290101787e-13, 1, 119.7349902998, 120, 119.7348249681, 29.92401045199, 27.01413608043, 29.92401045199, 27.01413608043, 29.9241969061, 29.92401016471, 27.01413595578, 46.55403370723, 29.92401016471, 27.01413595578, 4.751457988308e-15, 0, 0.04082084480286, -0.02316173021052, -0.04082084480285, 0.02316173021052, 0.8372248981351, 0.8377803850016, -0.8372248981351, -0.8377803850016, 7.845367716965e-16, 0.8376281223915, 0.8374720481689, 0, -0.8376281223915, -0.8374720481689, -5.551115123126e-17, -0, -5.551115123126e-17, -0, -0.002085515247295, 0.3171817799159, 0.3238547083558, 0, 0.3171817799159, 0.3238547083558
0.925, -0.04153512048033, 0.02385120660146, 0.04153512048033, -0.02385120660145, -1.299135259889e-14, -4.387668354744e-16, 0, 314.9721206446, -21.7939549239, 314.9721206446, -21.7939549239, 62.28619498568, -21.45656451345, -62.28619498568, 21.45656451344, 4507.613272014, 2718.576736512, 4507.613272014, 2718.576736512, 6, 0, 8.099276443243e-16, -0.02474185424179, -0, -0, -0, -0, -0, 6.389321282019e-16, 0, 0, 0, 0, 0, 6.389321877741e-16, -0.07366275397588, 0.05546747969087, 0.07366275397588, -0.05546747969087, 15.08429829598, 15.05729430258, 15.08429829598, 15.05729430258, 30.75573725699, 0.0413323470363, -0.0413323470363, -1.325291275023e-13, 1, 119.7438370051, 120, 119.7436862686, 30.75553942126, 27.84566705431, 30.75553942126, 27.84566705431, 30.75573725699, 30.75553912731, 27.84566692547, 47.38680479431, 30.75553912731, 27.84566692547, 4.375110794032e-15, 0, 0.04130054132601, -0.02354555530375, -0.04130054132601, 0.02354555530375, 0.8372213924992, 0.8377850127666, -0.8372213924992, -0.8377850127666, 8.099276443243e-16, 0.8376291778601, 0.8374714909839, 0, -0.8376291778601, -0.8374714909838, -5.551115123126e-17, -0, -5.551115123126e-17, -0, -0.002024399808764, 0.3171802853562, 0.3238559051946, 0, 0.3171802853562, 0.3238559051946
0.95, -0.04196400004606, 0.02416190738031, 0.04196400004605, -0.02416190738031, -1.124851216851e-14, -4.679133974619e-16, 0, 313.1922903471, -21.7577755807, 313.1922903472, -21.7577755807, 62.95496374581, -21.74297001888, -62.95496374581, 21.74297001888, 4508.01969337, 2718.23467398, 4508.01969337, 2718.23467398, 6, 0, 8.353654318034e-16, -0.02644914028552, -0, -0, -0, -0, -0, 5.343519087092e-16, 0, 0, 0, 0, 0, 5.343519656436e-16, -0.07442753632645, 0.0562888554057, 0.07442753632645, -0.0562888554057, 15.49261974223, 15.46440478753, 15.49261974223, 15.46440478753, 31.58733687378, 0.04178039622716, -0.04178039622716, -1.286873124138e-13, 1, 119.7524743881, 120, 119.7523374266, 31.58712863207, 28.67725809867, 31.58712863207, 28.67725809867, 31.58733687378, 31.58712833187, 28.67725796601, 48.21960596081, 31.58712833187, 28.67725796601, 4.080603138268e-15, 0, 0.04174604308581, -0.02388911925202, -0.0417460430858, 0.02388911925202, 0.8372181327109, 0.8377891553164, -0.8372181327109, -0.8377891553164, 8.353654318034e-16, 0.8376301498114, 0.8374709895764, 0, -0.8376301498114, -0.8374709895764, 5.551115123126e-17, -0, 5.551115123126e-17, -0, -0.001967870532567, 0.3171787633885, 0.3238571770189, 0, 0.3171787633885, 0.3238571770189
0.975, -0.04236135077531, 0.02443688423284, 0.0423613507753, -0.02443688423284, -1.163655397771e-14, -5.718765399053e-16, 0, 311.3561581637, -21.72026443487, 311.3561581637, -21.72026443487, 63.57470971836, -21.9965424251, -63.57470971836, 21.9965424251, 4508.436376251, 2717.87659937, 4508.436376251, 2717.87659937, 6, 0, 8.56798057019e-16, -0.0280018825276, -0, -0, -0, -0, -0, 3.43479754372e-16, 0, 0, 0, 0, 0, 3.434797953924e-16, -0.07513611855053, 0.05702028356981, 0.07513611855053, -0.05702028356981, 15.90096387342, 15.87154413279, 15.90096387342, 15.87154413279, 32.4189943596, 0.04219590026552, -0.04219590026552, -1.2462017194e-13, 1, 119.7608948291, 120, 119.7607708109, 32.41877663119, 29.50890776929, 32.41877663119, 29.50890776929, 32.4189943596, 32.41877632513, 29.50890763319, 49.05243475, 32.41877632513, 29.50890763319, 3.786568204444e-15, 0, 0.04215918438774, -0.02419489055104, -0.04215918438774, 0.02419489055104, 0.8372151064059, 0.8377928425755, -0.8372151064059, -0.8377928425755, 8.56798057019e-16, 0.8376310440435, 0.8374705412013, 0, -0.8376310440435, -0.8374705412013, -5.551115123126e-17, -0, -5.551115123126e-17, -0, -0.001915679611398, 0.3171772034833, 0.3238585090295, 0, 0.3171772034833, 0.3238585090295
1, -0.04272884779399, 0.02467859864963, 0.04272884779399, -0.02467859864962, -8.654987972954e-15, -3.549602317853e-16, 0, 309.4814058257, -21.68184353298, 309.4814058257, -21.68184353298, 64.14809330344, -22.21952670218, -64.14809330344, 22.21952670217, 4508.862000264, 2717.51008462, 4508.862000264, 2717.51008462, 6, 0, 8.741351860779e-16, -0.02940981474419, -0, -0, -0, -0, -0, 3.686726682174e-17, 0, 0, 0, 0, 0, 3.686727167854e-17, -0.07579155623676, 0.0576675061538, 0.07579155623676, -0.0576675061538, 16.30932978342, 16.27871162037, 16.30932978342, 16.27871162037, 33.25070827403, 0.04258057440604, -0.04258057440604, -1.207346327825e-13, 1, 119.7690929461, 120, 119.7689810211, 33.25048192112, 30.3406145776, 33.25048192112, 30.3406145776, 33.25070827403, 33.2504816096, 30.34061443841, 49.8852889714, 33.2504816096, 30.34061443841, 3.517731047206e-15, 0, 0.04254167633834, -0.0244653129408, -0.04254167633833, 0.02446531294079, 0.8372123019328, 0.8377961040969, -0.8372123019328, -0.8377961040969, 8.741351860779e-16, 0.8376318658296, 0.8374701429881, 0, -0.8376318658296, -0.8374701429881, -5.551115123126e-17, -5.551115123126e-17, -5.551115123126e-17, -5.551115123126e-17, -0.00186758240527, 0.3171756105565, 0.3238598729597, 0, 0.3171756105565, 0.3238598729597
1.025, -0.04306812643961, 0.02488955090071, 0.04306812643962, -0.02488955090071, -8.27245963494e-15, -2.514817799735e-16, 0, 307.5832051392, -21.64285035933, 307.5832051392, -21.64285035933, 64.6776270837, -22.4142113691, -64.6776270837, 22.41421136909, 4509.292491391, 2717.14224758, 4509.292491391, 2717.14224758, 6, 0, 8.887855650915e-16, -0.03068270496908, -0, -0, -0, -0, -0, -4.070628443667e-16, 0, 0, 0, 0, 0, -4.070629027346e-16, -0.0763967814296, 0.05823636853085, 0.0763967814296, -0.05823636853086, 16.71771660835, 16.68590651509, 16.71771660835, 16.68590651509, 34.08247714635, 0.04293607183928, -0.0429360718393, -1.176143169905e-13, 1, 119.7770652764, 120, 119.776964601, 34.08224297396, 31.17237700479, 34.08224297396, 31.17237700479, 34.08247714635, 34.08224265735, 31.17237686286, 50.71816667426, 34.08224265735, 31.17237686286, 3.299015756095e-15, 0, 0.04289516641591, -0.02470286653265, -0.04289516641592, 0.02470286653266, 0.8372097079464, 0.8377989698253, -0.8372097079464, -0.8377989698253, 8.887855650915e-16, 0.8376326200791, 0.8374697918726, 0, -0.8376326200791, -0.8374697918726, -0, -0, -0, -0, -0.001823334564293, 0.3171739997981, 0.323861242233, 0, 0.3171739997981, 0.323861242233
1.05, -0.04338080270829, 0.02507217001657, 0.04338080270828, -0.02507217001658, -3.958018039531e-15, -2.851116904004e-16, 0, 305.6745223679, -21.60355419593, 305.6745223679, -21.60355419593, 65.16575639165, -22.58283417658, -65.16575639165, 22.58283417657, 4509.723027493, 2716.777202424, 4509.723027493, 2716.777202424, 6, 0, 9.01368692746e-16, -0.03183003586501, -0, -0, -0, -0, -0, -9.602731642698e-16, 0, 0, 0, 0, 0, -9.602733124513e-16, -0.07695466346036, 0.05873271564793, 0.07695466346036, -0.05873271564793, 17.12612352447, 17.09312807057, 17.12612352447, 17.09312807057, 34.91429948511, 0.0432640183124, -0.0432640183124, -1.154441941436e-13, 1, 119.7848100041, 120, 119.7847197703, 34.9140582427, 32.00419351305, 34.9140582427, 32.00419351305, 34.91429948511, 34.91405792135, 32.00419336871, 51.55106611988, 34.91405792135, 32.00419336871, 3.140389625663e-15, 0, 0.04322127365947, -0.02491002475734, -0.04322127365947, 0.02491002475734, 0.8372073131822, 0.837801469603, -0.8372073131822, -0.837801469603, 9.01368692746e-16, 0.8376333114392, 0.83746948468, 0, -0.8376333114392, -0.83746948468, -0, 5.551115123126e-17, -0, 5.551115123126e-17, -0.001782694742457, 0.3171723891887, 0.3238626014773, 0, 0.3171723891887, 0.3238626014773
1.075, -0.04366846821843, 0.02522872272725, 0.04366846821844, -0.02522872272726, -1.551564418272e-15, -1.560311960618e-16, 0, 303.7663439639, -21.56417758191, 303.7663439639, -21.56417758191, 65.61489259035, -22.72749290536, -65.61489259035, 22.72749290535, 4510.149492294, 2716.416061728, 4510.149492294, 2716.416061728, 6, 0, 9.135080810019e-16, -0.032860763614, -0, -0, -0, -0, -0, -1.562485684245e-15, 0, 0, 0, 0, 0, -1.562485941223e-15, -0.07746802183535, 0.05916218456992, 0.07746802183535, -0.05916218456992, 17.53454974578, 17.50037553404, 17.53454974578, 17.50037553404, 35.74617378655, 0.04356601878922, -0.04356601878924, -1.149323581045e-13, 1, 119.7923267155, 120, 119.792246167, 35.74592617097, 32.83606255511, 35.74592617097, 32.83606255511, 35.74617378655, 35.74592584523, 32.83606240867, 52.38398575419, 35.74592584523, 32.83606240867, 3.072287122501e-15, 0, 0.04352159581542, -0.02508916814731, -0.04352159581543, 0.02508916814731, 0.8372051064295, 0.837803632144, -0.8372051064295, -0.837803632144, 9.135080810019e-16, 0.8376339443316, 0.8374692182707, 0, -0.8376339443316, -0.8374692182707, -0, -5.551115123126e-17, -0, -5.551115123126e-17, -0.001745428916939, 0.317170794074, 0.3238639465189, 0, 0.317170794074, 0.3238639465189
1.1, -0.04393267354882, 0.02536128708598, 0.04393267354883, -0.02536128708598, 4.655090430629e-17, -4.556176436257e-16, 0, 301.8678911572, -21.52491242514, 301.8678911572, -21.52491242514, 66.02740712537, -22.85011183698, -66.02740712537, 22.85011183698, 4510.569025397, 2716.058510982, 4510.569025397, 2716.058510982, 6, 0, 9.263137437761e-16, -0.03378325393007, -0, -0, -0, -0, -0, -2.082031843854e-15, 0, 0, 0, 0, 0, -2.082032205776e-15, -0.07793960862225, 0.05953005054002, 0.07793960862225, -0.05953005054003, 17.94299452165, 17.90764815079, 17.94299452165, 17.90764815079, 36.57809854308, 0.04384364620933, -0.04384364620934, -1.15432067727e-13, 1, 119.7996161787, 120, 119.7995446101, 36.5778452019, 33.66798258276, 36.5778452019, 33.66798258276, 36.57809854308, 36.5778448721, 33.66798243451, 53.21692418337, 36.5778448721, 33.66798243451, 3.056535870827e-15, 0, 0.04379769835599, -0.02524252081555, -0.043797698356, 0.02524252081556, 0.8372030766288, 0.8378054842685, -0.8372030766288, -0.8378054842685, 9.263137437761e-16, 0.8376345229501, 0.83746898965, 0, -0.8376345229501, -0.83746898965, -0, -0, -0, -0, -0.001711313666653, 0.317169225113, 0.323865278509, 0, 0.317169225113, 0.323865278509
1.125, -0.04417491171337, 0.02547178010184, 0.04417491171337, -0.02547178010183, 1.084352476575e-15, -5.731938550651e-16, 0, 299.9868404345, -21.48592707366, 299.9868404345, -21.48592707366, 66.40560736942, -22.95246123486, -66.40560736943, 22.95246123485, 4510.979908912, 2715.704405004, 4510.979908912, 2715.704405004, 6, 0, 9.475246917515e-16, -0.0346053451201, -0, -0, -0, -0, -0, -1.437775199485e-15, 0, 0, 0, 0, 0, -1.437775461727e-15, -0.07837208181726, 0.05984119264998, 0.07837208181726, -0.05984119264998, 18.35145713472, 18.31494516802, 18.35145713472, 18.31494516802, 37.41007225127, 0.04409842493226, -0.04409842493226, -1.170088666753e-13, 1, 119.806680148, 120, 119.8066168971, 37.40981378581, 34.49995205453, 37.40981378581, 34.49995205453, 37.41007225127, 37.40981345226, 34.49995190474, 54.04988015364, 37.40981345226, 34.49995190474, 3.069762468148e-15, 0, 0.0440510980029, -0.02537213710012, -0.04405109800289, 0.02537213710011, 0.8372012130036, 0.8378070507368, -0.8372012130036, -0.8378070507368, 9.475246917515e-16, 0.8376350512447, 0.8374687960033, 0, -0.8376350512447, -0.8374687960033, -0, -0, -0, -0, -0.001680137671095, 0.3171676887014, 0.3238665979672, 0, 0.3171676887014, 0.3238665979672
1.15, -0.04439660735746, 0.02556200170285, 0.04439660735745, -0.02556200170284, 1.930934668719e-15, -3.917795162548e-16, 0, 298.1295369178, -21.44736691482, 298.1295369178, -21.44736691482, 66.75171239661, -23.03619727282, -66.75171239662, 23.03619727282, 4511.381203219, 2715.354456275, 4511.381203219, 2715.354456275, 6, 0, 9.623939221967e-16, -0.03533443810967, -0, -0, -0, -0, -0, -1.165670518983e-15, 0, 0, 0, 0, 0, -1.165670740648e-15, -0.07876798380151, 0.0601001497854, 0.07876798380151, -0.0601001497854, 18.75993689887, 18.72226583827, 18.75993689887, 18.72226583827, 38.24209341898, 0.04433181720505, -0.04433181720505, -1.18753198165e-13, 1, 119.8135211941, 120, 119.8134656339, 38.2418303868, 35.33196944227, 38.2418303868, 35.33196944227, 38.24209341898, 38.2418300498, 35.33196929119, 54.88285253481, 38.2418300498, 35.33196929119, 3.112873219674e-15, 0, 0.04428324921747, -0.02547992586565, -0.04428324921746, 0.02547992586565, 0.8371995051678, 0.8378083545397, -0.8371995051678, -0.8378083545397, 9.623939221967e-16, 0.8376355329114, 0.8374686346718, 0, -0.8376355329114, -0.8374686346718, -0, -0, -0, -0, -0.0016517018942, 0.3171661883307, 0.3238679022132, 0, 0.3171661883307, 0.3238679022132
1.175, -0.04459911207263, 0.02563366400889, 0.04459911207263, -0.0256336640089, -5.981927041236e-15, -6.120682406933e-16, 0, 296.3011838573, -21.40935327162, 296.3011838573, -21.40935327162, 67.06783730257, -23.10289187177, -67.06783730258, 23.10289187176, 4511.772418624, 2715.010013576, 4511.772418624, 2715.010013576, 6, 0, 9.677860442133e-16, -0.03597754727466, -0, -0, -0, -0, -0, -1.496426493097e-15, 0, 0, 0, 0, 0, -1.496426788111e-15, -0.07912972951975, 0.06031119819866, 0.07912972951974, -0.06031119819866, 19.16843315751, 19.1296094223, 19.16843315751, 19.1296094223, 39.07416057088, 0.04454521542823, -0.04454521542823, -1.185985014185e-13, 1, 119.8201425587, 120, 119.8200940949, 39.0738934881, 36.16403323655, 39.0738934881, 36.16403323655, 39.07416057088, 39.07389314793, 36.16403308443, 55.71584030628, 39.07389314793, 36.16403308443, 3.081311364284e-15, 0, 0.04449553652053, -0.02556768362185, -0.04449553652052, 0.02556768362185, 0.8371979431895, 0.8378094172989, -0.8371979431895, -0.8378094172989, 9.677860442133e-16, 0.8376359713928, 0.8374685031144, 0, -0.8376359713928, -0.8374685031144, -5.551115123126e-17, -0, -5.551115123126e-17, -0, -0.001625819170633, 0.3171647258138, 0.3238691861929, 0, 0.3171647258138, 0.3238691861929
