Time,AVy_L1,AVy_L2,AVy_R1,AVy_R2,AV_Eng,Ax,Ay,A_Bttry,Bk_Stat,EffMt_D2_L,EffMt_D2_R,Fx_L1,Fx_L2,Fx_R1,Fx_R2,Fy_L1,Fy_L2,Fy_R1,Fy_R2,Fz_L1,Fz_L2,Fz_R1,Fz_R2,KappaRef,Kappa_L1,Kappa_L2,Kappa_R1,Kappa_R2,KappL_L1,KappL_L2,KappL_R1,KappL_R2,ModeHybr,ModeTran,My_Dr_L2,My_Dr_R2,M_D3r,M_Eng_In,M_Gnrtr,M_MtC_D2_L,M_MtC_D2_R,M_Mtr_D2_L,M_Mtr_D2_R,M_TCMD_L2,M_TCMD_R2,M_Trans,Pitch,PitchGL1,PitchGL2,PitchGR1,PitchGR2,PwMtC_D2_L,PwMtC_D2_R,PwrBtrCh,PwrBtrDs,PwrBttry,PwrDrHEV,PwrEngIn,PwrEngRq,PwrGnrtr,PwrMt_D2_L,PwrMt_D2_R,RollGL1,RollGL2,RollGR1,RollGR2,Roll_E,Roll_L1,Roll_L2,Roll_R1,Roll_R2,Rot_L1,Rot_L2,Rot_R1,Rot_R2,SocBttry,Throttle,Thr_Eng,Thr_HEV,TmDarkL1,TmDarkL2,TmDarkR1,TmDarkR2,TmLen_L1,TmLen_L2,TmLen_R1,TmLen_R2,VocBttry,Vx,Vxz_Fwd,Vx_L1,Vx_L2,Vx_R1,Vx_R2,Vy,VYaw_L1,VYaw_L2,VYaw_R1,VYaw_R2,Xctc_L1,Xctc_L2,Xctc_R1,Xctc_R2,Xo,X_L1,X_L2,X_R1,X_R2,Yaw,Yaw_L1,Yaw_L2,Yaw_R1,Yaw_R2,Yctc_L1,Yctc_L2,Yctc_R1,Yctc_R2,Yo,Y_L1,Y_L2,Y_R1,Y_R2,Zgnd_L1,Zgnd_L2,Zgnd_R1,Zgnd_R2,Zo,Z_L1,Z_L2,Z_R1,Z_R2
0, 0, 0, 0, 0, 1450, -0.0001127503786447, -0.0001200758065601, 0, 0, 0.85975, 0.85975, 5.597858556424e-07, 0, 4.697255864446e-07, 0, -5.558639849041, -0, 4.681297087511, -0, 1832.969482895, 2087.109921483, 1531.198017732, 1911.137075691, 0.04, 0, 0, 0, 0, 0, 0, 0, 0, 1, 5, 0, 0, 0, 0.1680189166667, 0, 0, 0, 0, 0, 0, 0, 0, -0.05832348703591, 0.0257830990385, -0.09429239772947, -0.03151267555444, 0.07252004791437, 0, 0, -22.62169197397, 17.88102798265, 0, 0, 0.02551260472277, 0, 0, 0, 0, 3.235706160093e-07, 0, 1.203563993226e-07, 0, 0, 0.5002033278751, 0, -0.5002033278751, 0, -0.0001571607889768, -0.0001620096862109, -0.0001571607889768, -0.0001620096862109, 0.8, 0, 0, 0, 0, 0, 0, 0, 0, 0, 0, 0, 53.152, 0, 0, 0, 0, 0, 0, 0, 179.8005090818, 180, 180.1994909182, 180, -0.0003980990712272, -1.916812307378, -0.0001132979065865, -1.917636992558, 0, -0.0002789146569574, -1.917277921464, -0.0002789146569574, -1.917277921464, 0, -0.1994909181939, 0, 0.1994909181939, 0, 0.5479800404957, 0.5455, -0.5479905031279, -0.5455, 0, 0.5455, 0.5455, -0.5455, -0.5455, 0.0009612786629051, 0.0001043829925833, -0.0003507067856338, -0.0006608722299501, 0.01098113551676, 0.284980993558, 0.283029608896, 0.284980993558, 0.283029608896
0.025, 0.1546825724653, 0.163439025116, 0.1812931751176, 0.1648825489369, 1450.923085587, -0.001673559515125, -0.005385715867429, -0.1469177743638, 0, 0.85975, 0.85975, -2.606185973386, -3.040911063057, -2.371033371186, -3.241682308839, -14.83829323044, -9.055327060298, -4.808416964091, -10.90529353279, 1665.014124246, 2070.369118509, 1579.18827387, 2018.004754258, 0.04, -0.05256512457481, -0.005466121210183, -0.001846773046515, -0.1285653918907, -6.285401795152e-05, -5.938105364548e-05, -6.015128983029e-05, -6.484179685267e-05, 1, 5, 0, 0, 0, 0.1649604644164, -0.06613542364211, 0, 0, 0, 0, 0, 0, 0, -0.0665200118784, 0.02577481190153, -0.09430235358864, -0.03149444385543, 0.07254160895147, 0, 0, -22.62169196258, 17.88102797741, -0.007809272061306, 0, 0.02506414413749, 0, -0.007809272061306, 0, 0, 3.75334700095e-07, 1.428665927901e-08, 1.516979821699e-07, 6.463091066441e-08, 0.01738820961948, 0.5226392219629, 0.01790127941465, -0.4803907534601, 0.02103248860298, -0.000145197402998, -0.00015409528939, -0.0001439372718603, -0.0001350675042697, 0.8000000036591, 0, 0, 0, 0.0002962205022927, 0.0003351417563919, 0.0002786307204348, 0.0003515793262059, 0.0008426119195097, 0.0007728339548729, 0.0008435807438682, 0.0008503340922953, 53.15200000055, -0.002017531895564, -0.005620516705917, 0.0165611635027, 0.01749867728813, 0.01941024038581, 0.0176532288555, -0.001608411151971, 52.38771782591, 49.97264195098, 52.58069358194, 51.89156791276, -0.0003728505149252, -1.916794724625, -8.81100267857e-05, -1.917585696814, 6.353848414817e-05, -0.000253903069295, -1.917260506967, -0.0002531166545193, -1.917227105967, 0.0004126962510058, -0.2020145120907, 0.0004706798073764, 0.1981835138767, 0.0006892919468592, 0.5481587669845, 0.5456494194972, -0.5478226569455, -0.5453230250792, 0.0001560473057483, 0.5455608436506, 0.5455609968302, -0.545432564462, -0.5454269890532, 0.0009612591159682, 0.00010396964939, -0.0003507611430835, -0.000661080798987, 0.01113677601644, 0.2857101915235, 0.2831019676605, 0.2847731376663, 0.2825647394008
0.05, 0.07257878574466, 0.09209959013443, 0.09021497047586, 0.05490621593467, 1451.185721579, -0.001951821184367, -0.01477439558255, -0.3965980422105, 0, 0.85975, 0.85975, -3.083129952032, -2.993772211074, -1.564813460312, -5.833102963258, -30.3447923189, -26.19713729222, -22.61342037449, -29.5103258405, 1524.206313344, 2049.335134992, 1606.623687301, 2154.685766148, 0.04, -0.07193782051602, -0.05921057784175, -0.05418722630483, -0.08792458241466, -8.118051692789e-05, -5.91013313896e-05, -3.910861789103e-05, -0.0001098985135825, 1, 5, 0, 0, 0, 0.1640285628847, -0.178501875625, 0, 0, 0, 0, 0, 0, 0, -0.08281051172599, 0.02575633546085, -0.09432452529304, -0.03145379569121, 0.07258964767832, 0, 0, -22.62169190086, 17.88102794906, -0.02108215446179, 0, 0.02492706203622, 0, -0.02108215446179, 0, 0, 4.733435231101e-07, 1.818423508428e-08, 2.07330347883e-07, 1.997534614316e-07, 0.05472523060015, 0.5594810842994, 0.05496532010387, -0.4424825642351, 0.05813162280238, -0.0001265806509609, -0.0001322911954101, -0.0001166388543462, -0.0001107725892974, 0.8000000227432, 0, 0, 0, 0.000154526167159, 0.000207113131215, 0.0001690434801351, 0.0001973682316719, 0.000477614817339, 0.0004874381125016, 0.0005019721649236, 0.0004281787600165, 53.15200000355, -0.003973305283355, -0.006538141580539, 0.007770682361872, 0.00986068660767, 0.009658908903766, 0.00587856023414, -0.01082421725511, 36.38232722072, 36.5378879691, 37.8664860864, 33.74216996964, -0.0003381033688771, -1.916755419853, -4.158902982439e-05, -1.91753980552, 0.0001828149947968, -0.0002195289205649, -1.917221458688, -0.0002057226459928, -1.917181725333, 0.0008459483938825, -0.1997638291481, 0.0009475203673786, 0.1995192257164, 0.001170022950767, 0.5484649257603, 0.5459338611202, -0.5475178637415, -0.5450382715998, 0.000451644089579, 0.5456779332496, 0.5456622784257, -0.545317339175, -0.5453250189035, 0.0009612794291622, 0.0001039019270105, -0.0003507859732578, -0.0006610378974627, 0.01143137260452, 0.2863206614202, 0.2831932352841, 0.2846553514184, 0.2819703908229
0.075, -0.09931977163875, -0.07529694033202, -0.1330772177, -0.1446572337063, 1450.864588236, 0.002239721758606, -0.01401062857591, -0.5247246288816, 0, 0.85975, 0.85975, 4.016155394361, 4.901020679151, 5.993612571305, 2.399761912127, -29.02308940398, -25.52227644663, -21.35308945953, -27.15132345181, 1553.150006509, 2049.852187696, 1619.484866413, 2152.635474718, 0.04, -0.03191457764789, 0.007213587938462, -0.05289104070321, 0.0148741078846, 0.0001036219656235, 9.660942110847e-05, 0.0001484281784363, 4.519075721278e-05, 1, 5, 0, 0, 0, 0.1650827001835, -0.2362299368495, 0, 0, 0, 0, 0, 0, 0, -0.08566845865412, 0.02573812670148, -0.09434637578179, -0.03141373642324, 0.07263699043763, -0, -0, -22.62169179266, 17.88102789935, -0.02789397137496, 0, 0.02508170540959, 0, -0.02789397137496, -0, -0, 4.899060375803e-07, 1.649680502454e-08, 2.141474904479e-07, 2.31951900052e-07, 0.06678969392065, 0.5683285239878, 0.06614559623385, -0.430885941559, 0.06622001089186, -0.0001296601170992, -0.0001307195794598, -0.0001244322245551, -0.0001319263482907, 0.8000000557713, 0, 0, 0, 0.0002190772257209, 0.0002425424231806, 0.0002239543113955, 0.0002894977876799, 0.0006419415642111, 0.000540241268177, 0.0006432239829453, 0.0006507379866315, 53.15200000881, -0.003572061896581, -0.005786943622106, -0.01063371878904, -0.008061702881052, -0.0142479758753, -0.01548779582003, -0.02454781052817, 225.8407635642, 221.0309300505, 225.6461371538, 224.6841673103, -0.0003512296257343, -1.916760814695, -6.366766203641e-05, -1.917586452659, 0.0001797672361874, -0.0002328947920187, -1.917226960762, -0.0002273549814617, -1.917228131792, 0.0002253656124415, -0.198615835865, 0.0002830499951349, 0.1991506885799, 0.0002885888976218, 0.54842891375, 0.5459201193259, -0.5475448910628, -0.5450790789503, 0.0004230261351731, 0.5455991083227, 0.5455933046706, -0.545402469883, -0.5454057408579, 0.0009612994481731, 0.000103835182525, -0.0003508104435403, -0.0006609956090691, 0.0114537106751, 0.2861944118446, 0.2831908619283, 0.284599850137, 0.2819793038156
0.1, -0.1334658217364, -0.1403510735248, -0.1972371995472, -0.146804233135, 1450.431475668, 0.001652726009771, -0.00193346502373, -0.4871436686865, 0, 0.85975, 0.85975, 2.360275788324, 4.163081497223, 3.021208719794, 3.562964281664, -7.19459154573, -4.601478354755, 1.682431622339, -4.103703856372, 1657.343787429, 2066.334524672, 1617.383856918, 2052.677906454, 0.04, -0.03462868829796, -0.03291491272998, -0.07320234906828, 0.09104996895612, 5.711735831457e-05, 8.140068229559e-05, 7.485439746178e-05, 7.009783144065e-05, 1, 5, 0, 0, 0, 0.1665458317142, -0.2193798422035, 0, 0, 0, 0, 0, 0, 0, -0.07555814398788, 0.02573350771165, -0.09435191856543, -0.03140357464389, 0.07264899981118, -0, -0, -22.62169167424, 17.88102784494, -0.025895942268, 0, 0.02529645134554, 0, -0.025895942268, -0, -0, 4.277746314759e-07, 2.52501911927e-08, 1.815561010317e-07, 1.460990386077e-07, 0.04768751554308, 0.5485501823239, 0.04674585604297, -0.4503844277181, 0.04454450343082, -0.000152666844249, -0.000153301316724, -0.0001676001095975, -0.0001803971898052, 0.8000000916743, 0, 0, 0, 0.0004302577754894, 0.0004737426109719, 0.0004233272686747, 0.0004800569867895, 0.001165899384337, 0.001037534378135, 0.001194599800968, 0.001078143980628, 53.15200001456, -0.001568494827703, 0.002474320337187, -0.01428958195206, -0.01502675472342, -0.02111729497678, -0.01571766533934, -0.0320900861912, 242.1529728216, 239.3246705833, 242.7295907391, 239.7914974159, -0.0003913212808383, -1.916800457651, -0.0001362701472645, -1.917674673134, 7.520538072297e-05, -0.0002729729858747, -1.917266519998, -0.0003001568216888, -1.917315749526, -0.0013486508078, -0.201052832205, -0.001351220005229, 0.1967757097657, -0.001504942906878, 0.548021870874, 0.5455689659458, -0.5479471903467, -0.5454499692358, 2.471779837501e-05, 0.5452948595284, 0.5453380733181, -0.5457077187693, -0.545670054871, 0.0009613045281876, 0.0001038182470471, -0.0003508166477106, -0.0006609848909134, 0.01124032513151, 0.285742381003, 0.2831192771625, 0.2846082327176, 0.2824140154554
0.125, -0.007051245316562, -0.02939337128137, -0.0349265993055, -0.003129727349339, 1450.248126306, 0.0003114925947486, 0.01019617694513, -0.378731169386, 0, 0.85975, 0.85975, 0.251015019503, 0.9500808889388, -1.012291533593, 3.146829107759, 15.82955872034, 17.19942742364, 24.7538679243, 17.22012435835, 1690.477876455, 2076.462155619, 1602.501561401, 1996.995149666, 0.04, 0.01265350632138, -0.01593270266656, -0.01811178747094, 0.01913103515025, 5.959779704082e-06, 1.849871878394e-05, -2.536908272429e-05, 6.354314147047e-05, 1, 5, 0, 0, 0, 0.1671834407534, -0.1705777271873, 0, 0, 0, 0, 0, 0, 0, -0.0684640883002, 0.0257354489954, -0.09434958902801, -0.03140784546658, 0.07264395247646, -0, -0, -22.62169157455, 17.88102779914, -0.02013230286041, 0, 0.02539008706356, 0, -0.02013230286041, -0, -0, 3.858816258325e-07, 2.095317249254e-08, 1.584162585266e-07, 8.261252996879e-08, 0.02856796723049, 0.5314851068187, 0.0281642050489, -0.4695178325032, 0.02645696578358, -0.0001647676964373, -0.0001703441834133, -0.0001969333868057, -0.0002028047025021, 0.8000001217875, 0, 0, 0, 0.000244277030829, 0.0002877433681413, 0.0002367564196165, 0.0002623402792252, 0.000637959067724, 0.0006129531143374, 0.0006539204635015, 0.0005798612972441, 53.1520000194, -0.0005192915098883, -0.002872737394228, -0.0007549449477346, -0.003147015335524, -0.003739433036786, -0.0003350857535223, -0.02797067481421, 226.5375140488, 225.5390783725, 227.5682453525, 224.0071420581, -0.0004118303289739, -1.916827624397, -0.0001830484885757, -1.917714413584, 6.805335949179e-06, -0.0002933925982436, -1.917293603171, -0.0003472327266723, -1.917355208158, -0.002470106904134, -0.204469258787, -0.002466713672284, 0.1946115784921, -0.002586655641238, 0.5476207484114, 0.5452053928652, -0.5483533347824, -0.5458092397452, -0.0003781342993523, 0.5449798857949, 0.5450663159868, -0.5460181681719, -0.5459400808299, 0.0009613023948979, 0.0001038253691398, -0.0003508140405502, -0.0006609894057462, 0.0111142531515, 0.2855991232792, 0.2830753111919, 0.2846721748398, 0.2826561650643
0.15, 0.05069098446138, 0.06755703214919, 0.09537477466496, 0.09760152591772, 1450.346823785, -0.0004221053505735, 0.01286269899933, -0.3074268543074, 0, 0.85975, 0.85975, -0.006875520654795, -1.540988902799, -1.128860343804, 0.5802599308757, 19.47118603524, 23.1133303959, 29.25016659511, 22.78002965529, 1626.709287484, 2064.365474501, 1598.710486782, 2041.847875419, 0.04, 0.01552610025529, 0.05783199815904, 0.01389915833738, -0.007012434610459, -1.69718271937e-07, -3.020785044721e-05, -2.836873611295e-05, 1.147835039385e-05, 1, 5, 0, 0, 0, 0.166865751448, -0.1384512213714, 0, 0, 0, 0, 0, 0, 0, -0.07211007252371, 0.02572323992557, -0.0943642398965, -0.031380985515, 0.07267569604743, 0, 0, -22.62169149711, 17.88102776356, -0.01634165925818, 0, 0.02534356436037, 0, -0.01634165925818, 0, 0, 4.083917849315e-07, 2.271320296303e-08, 1.721487118856e-07, 1.137354073408e-07, 0.03560945516898, 0.5399768235855, 0.03550617819496, -0.4623792928034, 0.0354834414381, -0.0001640285152778, -0.0001727139559699, -0.0001895816583238, -0.0001897044790304, 0.800000145198, 0, 0, 0, 8.74846424056e-05, 4.651768417695e-05, 8.56865510229e-05, 5.666484438277e-05, 0.000250644859661, 0.0001267078375095, 0.0002864778497957, 0.0002163253009361, 53.15200002316, -0.001714126846332, -0.004998234000599, 0.005427254463112, 0.007233025914612, 0.01021134580377, 0.01044975399022, -0.01700260046773, 21.36176058373, 8.826750404667, 21.69777543102, 11.52802328547, -0.0004104257708554, -1.916829064911, -0.0001697174162119, -1.91768847359, 3.111978102549e-05, -0.0002920862453432, -1.917295202012, -0.0003336805585316, -1.917329357932, -0.001765666366588, -0.204519039888, -0.001732627320431, 0.1952051689659, -0.001736040480907, 0.5475452352772, 0.5451021394524, -0.5484349998409, -0.5458977692338, -0.000461536711823, 0.5448595740096, 0.5449267635969, -0.5461352126075, -0.5460731184816, 0.000961315820267, 0.0001037806274649, -0.0003508304497248, -0.0006609610741837, 0.01120686017241, 0.2858759846667, 0.2831278403679, 0.2846889296943, 0.2824611574137
0.175, -0.002949848297258, -0.00065301576958, 0.04119778211692, -0.001690870433289, 1450.54076814, -0.0001990252886636, 0.007691771279269, -0.3102000969856, 0, 0.85975, 0.85975, 1.780054278634, 0.2416234314255, -1.245282417726, -1.343633204488, 7.310480327158, 15.59754707431, 17.83336431333, 15.84772257172, 1557.999545487, 2035.658260514, 1620.739300524, 2116.296493985, 0.04, 0.03465000508675, -0.02332756788451, -0.06934625135534, -0.1406930232465, 4.575038318773e-05, 4.792215339662e-06, -3.084359592002e-05, -2.571983673411e-05, 1, 5, 0, 0, 0, 0.1662133350622, -0.1396802394693, 0, 0, 0, 0, 0, 0, 0, -0.07872886580637, 0.02571056154412, -0.09437945393788, -0.03135309307889, 0.07270865982709, -0, -0, -22.62169142775, 17.88102773169, -0.01648908634253, 0, 0.02524785114351, 0, -0.01648908634253, -0, -0, 4.565692763038e-07, 2.779988979231e-08, 1.894754113324e-07, 2.090166447366e-07, 0.06287896085886, 0.5660253775763, 0.06178412784273, -0.4355389893667, 0.06231696828565, -0.0001716171148355, -0.0001753554938348, -0.0001710695329135, -0.0001743930644165, 0.800000166257, 0, 0, 0, 0.0002103337640836, 0.0001669755446556, 0.0002230689233355, 0.0001757240554794, 0.0005959717273236, 0.0003619339910038, 0.0006167900721519, 0.0003657440504079, 53.15200002653, -0.002790430723242, -0.003644479970892, -0.0003158269168948, -6.991544527284e-05, 0.004410860219823, -0.0001810338505579, -0.007637507662234, 135.0197829409, 31.08395407962, 45.48130965059, 30.72295391623, -0.0004253153342666, -1.916835452325, -0.0001373508605459, -1.917659230478, 7.196114013236e-05, -0.0003071843976737, -1.917301862245, -0.0003007917817474, -1.917300354217, 0.0005201991726566, -0.2006004127789, 0.0005272254765363, 0.1985637033632, 0.0005630120049385, 0.5477473785654, 0.5452193654951, -0.5482324217914, -0.545775799386, -0.0002634355804052, 0.5449292434345, 0.544914031451, -0.5460668983538, -0.5460833776881, 0.00096132976026, 0.0001037341592786, -0.0003508474883083, -0.000660931642411, 0.01134268500028, 0.2861734718007, 0.2832524973006, 0.2845941843814, 0.2821373842785
0.2, -0.06922130290308, -0.06222202457075, -0.01902649882633, -0.07332418405843, 1450.649555774, 0.001321046138266, 0.002844194541932, -0.3549212040489, 0, 0.85975, 0.85975, 3.282736705528, 1.207732878607, 3.165948605705, 2.895964622966, -3.917319379227, 8.78095767369, 6.480193132962, 9.58115873165, 1557.430118454, 2016.676132849, 1646.356390951, 2135.903610701, 0.04, 0.03880205570683, -0.01767512583864, 0.02592167026579, -0.04228547506728, 8.439048558481e-05, 2.415931572441e-05, 7.711088477268e-05, 5.490877310732e-05, 1, 5, 0, 0, 0, 0.1658388807801, -0.1598060010598, 0, 0, 0, 0, 0, 0, 0, -0.07941201793175, 0.02570112471803, -0.09439077811737, -0.03133233206321, 0.07273319556665, -0, -0, -22.62169135217, 17.88102769697, -0.01886651400048, 0, 0.02519286070753, 0, -0.01886651400048, -0, -0, 4.728141593622e-07, 3.514342321702e-08, 1.839014810114e-07, 2.743868688443e-07, 0.08485207418191, 0.5853876927495, 0.08159687856159, -0.4147696723048, 0.08139882996653, -0.0001935709145911, -0.0001883878034419, -0.000164414098776, -0.000178846435715, 0.8000001892637, 0, 0, 0, 9.582676313134e-05, 4.651129173171e-05, 0.0001034803892581, 4.113852522992e-05, 0.0003077905437353, 0.000142589041092, 0.0002813284595192, 0.0001330587794582, 53.1520000302, -0.00234166230911, -0.003076405917947, -0.007411211857789, -0.006661830780043, -0.00203708118455, -0.007850488788364, -0.00328890310909, 155.5340264725, 170.4265712925, 155.4255710887, 172.302766037, -0.0004654870697795, -1.916859693159, -0.0001308944045044, -1.91767177656, 5.892302086269e-05, -0.0003475287472574, -1.917326279633, -0.0002939314007839, -1.917312872089, 0.002722207011205, -0.1964650312562, 0.002611294360256, 0.2019383346596, 0.00259611480107, 0.5479426336858, 0.5453289627226, -0.5480324548713, -0.5456728068079, -6.48147848982e-05, 0.5450280991858, 0.5449255819896, -0.5459710368203, -0.546074434768, 0.0009613401353986, 0.0001036995657622, -0.0003508601699143, -0.0006609097272629, 0.01134595039471, 0.2861749893471, 0.2833348708975, 0.2844835625041, 0.28205203974
0.225, -0.06187666262265, -0.03748299577449, -0.05890674984031, -0.0761219427778, 1450.628314241, 0.001241169972988, 0.003175169171706, -0.3918770472758, 0, 0.85975, 0.85975, 3.550181448791, 1.375196192105, 3.552577686102, 1.532989001224, -4.775765468499, 10.71377079929, 5.733774046323, 11.68708429416, 1603.998898477, 2026.115678891, 1644.728540778, 2097.109324504, 0.04, 0.006963518524625, 0.03950473408376, -0.004794647879765, -0.001750163136503, 8.868771175405e-05, 2.739135035875e-05, 8.66086248462e-05, 2.956966770196e-05, 1, 5, 0, 0, 0, 0.1659029988467, -0.1764494052476, 0, 0, 0, 0, 0, 0, 0, -0.0752371444132, 0.0256936146133, -0.09439979023438, -0.0313158098329, 0.07275272183418, -0, -0, -22.62169126643, 17.88102765757, -0.0208311726705, 0, 0.02520223195388, 0, -0.0208311726705, -0, -0, 4.519681658764e-07, 4.466509454369e-08, 1.685292783036e-07, 2.629827214693e-07, 0.08637928484062, 0.5853751260996, 0.08105396380392, -0.4146313896053, 0.08018490202129, -0.0002146420508055, -0.0002017943208753, -0.000174112256149, -0.0001997117019171, 0.800000215348, 0, 0, 0, 6.391278648809e-05, 9.934604398764e-05, 6.70914930182e-05, 0.000105344069788, 0.0002098417077258, 0.0002333779385717, 0.0002070008834253, 0.0002594351771738, 53.15200003437, -0.001083016492656, -0.001883675083507, -0.006624854438113, -0.004013134845761, -0.00630687930754, -0.008150032161959, -0.001013570979021, 196.1349057138, 199.7243695343, 196.9020703619, 200.2805194639, -0.0005031225990312, -1.916883806594, -0.0001487040073396, -1.917707827422, 1.125526696136e-05, -0.0003852006317777, -1.917350364707, -0.0003117205643291, -1.917348607684, 0.003644001403804, -0.1948021355123, 0.003385087780655, 0.2036086834015, 0.003322045717808, 0.5479533327335, 0.5452969615103, -0.5480195508599, -0.5457106412084, -4.818793802437e-05, 0.5450409332113, 0.5448963163366, -0.5459587735069, -0.5461065108055, 0.0009613483930647, 0.000103672032517, -0.0003508702615109, -0.0006608922904108, 0.0112531638791, 0.2859725358915, 0.2832938056925, 0.2844906348562, 0.2822207360091
0.25, -0.0002950368758141, 0.0009734642376578, -0.02829333904564, -0.002709877466228, 1450.545365759, 0.0003605247563889, 0.00630530536548, -0.3972350636603, 0, 0.85975, 0.85975, 0.6876025503801, -0.650522313373, 2.241671380239, 1.335032574755, 1.158760167201, 16.47399977671, 11.74272227921, 17.0002412953, 1635.371574113, 2052.829091953, 1618.377215733, 2056.801484697, 0.04, -0.04200075885775, -0.03227535694766, -0.02912358202823, 0.04066233316636, 1.685358797556e-05, -1.281252115407e-05, 5.552905204437e-05, 2.622582774063e-05, 1, 5, 0, 0, 0, 0.1661807425656, -0.1788730299335, 0, 0, 0, 0, 0, 0, 0, -0.07283031844988, 0.02569125947667, -0.0944026163959, -0.03131062853186, 0.07275884518868, 0, -0, -22.62169117559, 17.88102761584, -0.0211160204336, 0, 0.02524298034397, 0, -0.0211160204336, 0, -0, 4.326377161891e-07, 4.280638415187e-08, 1.643390344701e-07, 2.201978841368e-07, 0.07516621854058, 0.574409349635, 0.06900207522369, -0.4265009302857, 0.06824092996124, -0.0002204824469699, -0.0002048297325826, -0.0001856960790172, -0.0002132390742967, 0.8000002429324, 0, 0, 0, 8.967487755795e-05, 7.292907582831e-05, 9.093987752665e-05, 6.984858980188e-05, 0.0002419302330455, 0.0001570005794434, 0.0002495517912749, 0.0001507271354723, 53.15200003878, -0.000299168852309, -0.0005607199217218, -3.158826402878e-05, 0.0001042244135648, -0.003029239858792, -0.0002901343252522, 0.003170420509787, -22.05233721299, -14.53354272743, 202.6076432918, 193.8468931493, -0.0005107168146347, -1.916887085104, -0.0001677171225775, -1.91773187828, -1.392850803286e-05, -0.0003927325497798, -1.917353473075, -0.000330962606268, -1.917372413037, 0.003072961467857, -0.1958989505525, 0.002736969080688, 0.2030443578755, 0.002680898304025, 0.5478486392894, 0.5452047171865, -0.5481264545507, -0.5458017848357, -0.0001504094072244, 0.5449921529274, 0.5448637848498, -0.5460058148065, -0.5461388971942, 0.0009613509835066, 0.0001036633988503, -0.0003508734258284, -0.0006608868284604, 0.01120473450257, 0.2858366945193, 0.2831777300068, 0.2846047663475, 0.2823960690261
0.275, 0.02908074594663, 0.02279150105478, 0.001140223530257, 0.0102123958574, 1450.486314496, -0.001148797998467, 0.006930895379156, -0.3799322658373, 0, 0.85975, 0.85975, -1.257941564727, -2.678304189178, -0.4537495189073, -3.072689934037, 3.640667630061, 16.4921168877, 14.18277742594, 16.66397359893, 1626.499918625, 2068.524746533, 1598.697757329, 2055.057687895, 0.04, -0.05413421586813, -0.05169426756375, -0.01293130028014, -0.0143190388898, -3.100556083219e-05, -5.237515976494e-05, -1.138583792107e-05, -6.045542662669e-05, 1, 5, 0, 0, 0, 0.1663826278149, -0.1710886660682, 0, 0, 0, 0, 0, 0, 0, -0.07459532841043, 0.02568735696978, -0.09440729939933, -0.03130204301722, 0.07276899170337, 0, 0, -22.6216910864, 17.88102757486, -0.02019615615035, 0, 0.02527261798336, 0, -0.02019615615035, 0, 0, 4.362932765492e-07, 3.550185516035e-08, 1.741853610526e-07, 2.024243394503e-07, 0.06809097473638, 0.5681780100036, 0.06230926737655, -0.4333061288145, 0.06196840990936, -0.0002120148675422, -0.0001983291000989, -0.0001930583425624, -0.0002184775689293, 0.8000002699856, 0, 0, 0, 2.538359240394e-05, 9.148611577465e-05, 2.19124351741e-05, 9.284986725404e-05, 0.0001039563854912, 0.000205598600354, 6.078085648698e-05, 0.0002009955768905, 53.15200004311, -0.0008129618673763, -0.001865372053036, 0.003113543954738, 0.002440182946434, 0.0001220785768768, 0.001093395040264, 0.009338757376122, 5.58166005705, 17.80637996009, 5.910595562309, 18.36745762217, -0.0004936323638144, -1.916873292212, -0.000177973468778, -1.917736592785, -2.217812906121e-06, -0.0003756468427409, -1.917339599506, -0.0003412783309047, -1.917377076192, 0.001730433860157, -0.1979491305912, 0.001413617857277, 0.2012621141742, 0.001387247451848, 0.5478061166575, 0.5452077700799, -0.5481716832318, -0.5457949961483, -0.0001944477871449, 0.5449802257172, 0.5448999890487, -0.5460165465094, -0.5461011368401, 0.0009613552749476, 0.0001036491013913, -0.0003508786714367, -0.0006608777739472, 0.01124397397769, 0.2858755782677, 0.2831095117188, 0.2846900675762, 0.282403694943
0.3, 0.002908437608317, 0.01695724921983, -0.008667234334934, -0.002806184303289, 1450.484509791, -0.0003693328061582, 0.003271477594668, -0.361817586516, 0, 0.85975, 0.85975, -2.945220739129, -3.782174667915, 2.904816342111, 2.05785366338, -1.295054462941, 7.883590032596, 9.270471204116, 8.187930992867, 1603.554185913, 2060.38332157, 1605.379657395, 2077.669477857, 0.04, -0.05115602143518, -0.002184367116875, 0.03226167302367, 0.04216561119573, -7.358520818909e-05, -7.418172873728e-05, 7.251777914952e-05, 4.003676669058e-05, 1, 5, 0, 0, 0, 0.166392261121, -0.162931150403, 0, 0, 0, 0, 0, 0, 0, -0.07691479651699, 0.02568181317274, -0.09441395194875, -0.03128984666483, 0.0727834055707, 0, -0, -22.62169100165, 17.88102753592, -0.01923313888813, 0, 0.02527404978407, 0, -0.01923313888813, 0, -0, 4.500250647875e-07, 3.349568575454e-08, 1.812597049963e-07, 2.199237966674e-07, 0.07170717115716, 0.5720010123216, 0.06655331743201, -0.4292020166826, 0.06626275172442, -0.0002048945163384, -0.0001926301760508, -0.0001992611508353, -0.0002214201488869, 0.80000029569, 0, 0, 0, 0.0001143577418369, 0.0002101668661209, 0.000115614395181, 0.0002103046230703, 0.0003152617955276, 0.0004512456351715, 0.0003191254407244, 0.0004470008660007, 53.15200004723, -0.00153653664715, -0.001772151306181, 0.0003113932617041, 0.001815535987086, -0.0009279615838384, -0.0003004454627617, 0.0140926844482, 27.36627211115, 36.87833423044, 152.3343578129, 143.3769142339, -0.0004788647886226, -1.916861865841, -0.0001929558812402, -1.917747304399, 8.908054656767e-06, -0.0003609963283362, -1.917328272624, -0.0003560553504057, -1.917387849657, 0.0001478171773134, -0.1992612838585, -0.0001163844952394, 0.1997514185018, -0.0001385592473536, 0.5478928500892, 0.5453515075737, -0.5480848442072, -0.5456508394128, -0.000109698191926, 0.5450469499466, 0.5450227348857, -0.5459503379765, -0.5459780917833, 0.000961361370599, 0.0001036287869726, -0.0003508861223462, -0.000660864906196, 0.01129146535608, 0.2859751542888, 0.2831448652044, 0.2846611629204, 0.282305371994
0.325, -0.001975859817766, -0.001178584819993, -0.04669810941342, -0.04281396094463, 1450.51793908, 0.001274007204461, -0.001720408467625, -0.3564483168687, 0, 0.85975, 0.85975, 1.70809807311, 0.98779494045, 3.672446565714, 3.918151043394, -8.789574249766, -3.033306163746, 1.721998826943, -2.55400284376, 1597.859781603, 2044.847963676, 1622.264051738, 2090.024004438, 0.04, 0.0208990191527, 0.01504488064281, -0.009754683119069, 0.01601483085029, 4.283630640739e-05, 1.95026772428e-05, 9.072260268713e-05, 7.579523360775e-05, 1, 5, 0, 0, 0, 0.1662809589479, -0.1605092111597, 0, 0, 0, 0, 0, 0, 0, -0.07679213190737, 0.02567750612698, -0.09441912039836, -0.0312803711648, 0.07279460388612, -0, -0, -22.62169091975, 17.88102749829, -0.01894769813274, 0, 0.02525772571011, 0, -0.01894769813274, -0, -0, 4.539722772532e-07, 3.709877291745e-08, 1.777451289171e-07, 2.406985728085e-07, 0.07819049007823, 0.578074682797, 0.07317368950593, -0.422654981194, 0.07256506070613, -0.0002006011916775, -0.0001882651811192, -0.0002120971623676, -0.0002344872695149, 0.8000003205456, 0, 0, 0, 9.489163276668e-05, 0.0001748828044707, 9.707614861469e-05, 0.0001753589644595, 0.0002622654422421, 0.0003774712596416, 0.0002751416954892, 0.0003799991101828, 53.15200005121, -0.001177606563821, -0.001244558884544, -0.0002115463751276, -0.0001261857466851, -0.004999755388969, -0.004583897177955, 0.01471254336732, 156.2286883378, 147.8349007133, 156.4483759859, 148.328102324, -0.0004757113968622, -1.916859087341, -0.0002171109652486, -1.91777263651, -2.060878116859e-06, -0.0003580079462106, -1.917325640213, -0.0003799628608179, -1.917413203906, -0.001316590355866, -0.2002347949499, -0.001560894729037, 0.198530017197, -0.001604964316375, 0.548024465199, 0.545534353955, -0.5479515204336, -0.545470811093, 2.190803005386e-05, 0.545148100459, 0.5451728021209, -0.5458501193265, -0.5458291297964, 0.0009613661060928, 0.0001036129991445, -0.0003508919103101, -0.0006608549056616, 0.01128638152367, 0.2859996128136, 0.2832123543836, 0.2845879908634, 0.2822516289695
0.35, -0.001548519764572, -0.002022380650045, -0.05167866762906, -0.05066745244572, 1450.54781078, 0.0009086127455822, -0.004274335793614, -0.3625639782959, 0, 0.85975, 0.85975, 1.235256933006, 1.130800168586, 2.315924940191, 2.927277360307, -12.09679874991, -9.228035918862, -1.498255469003, -8.612833228169, 1611.96692793, 2045.160220608, 1623.469418272, 2079.025716689, 0.04, -0.005747888972324, -0.009012265424699, -0.04665057337096, -0.03740988383482, 3.071733977433e-05, 2.23268693675e-05, 5.717039592792e-05, 5.691828713733e-05, 1, 5, 0, 0, 0, 0.1661793524981, -0.1632596570895, 0, 0, 0, 0, 0, 0, 0, -0.07526627443588, 0.0256748290747, -0.09442233285801, -0.0312744816498, 0.0728015642204, -0, -0, -22.62169083769, 17.88102746059, -0.01927281858446, 0, 0.02524281174057, 0, -0.01927281858446, -0, -0, 4.458689797861e-07, 3.96864572039e-08, 1.722762397886e-07, 2.337971326706e-07, 0.07724984443503, 0.5768957296811, 0.07202704556348, -0.423822497112, 0.07120068243632, -0.0001992724336815, -0.0001856940970958, -0.0002266103661837, -0.0002503974083113, 0.8000003454686, 0, 0, 0, 2.47109349365e-06, 5.417966894886e-05, 1.040591445326e-05, 5.537643140684e-05, 5.860125160549e-06, 0.0001167961811869, 6.435567931797e-05, 0.0001339106214405, 53.15200005519, -0.0002532949439594, 0.0006311197940454, -0.0001657930082201, -0.0002165271502555, -0.005533001233212, -0.005424734996616, 0.01180847633912, 0.3541271493613, 11.01114156384, 179.807758855, 169.11176126, -0.0004725865129135, -1.916854662519, -0.0002417864167544, -1.917800069185, -2.009553124285e-05, -0.0003549703265923, -1.917321238059, -0.0004045763607509, -1.917440550458, -0.002781008803164, -0.2016140962314, -0.003041740422634, 0.1971757016554, -0.003100977009264, 0.5480807423787, 0.5456392474342, -0.5478946032193, -0.5453677774209, 7.97414084937e-05, 0.5452108575913, 0.5452833751398, -0.5457874307544, -0.545719427973, 0.0009613690495289, 0.0001036031819091, -0.00035089550723, -0.0006608486893476, 0.0112531063287, 0.2859383425761, 0.2832109940835, 0.284582703812, 0.2822994621612
0.375, 0.01691162209034, 0.004637326935674, -0.0177257640188, -0.01231474658447, 1450.553702826, -0.0006689614490625, -0.003728423264549, -0.3710298657174, 0, 0.85975, 0.85975, -2.745256895014, -2.159522588138, 0.4240054660647, 0.5285075795255, -10.05489973013, -9.413335227559, 0.7212175250843, -8.680953872402, 1628.144901316, 2062.170620633, 1606.96618904, 2059.629596845, 0.04, 0.009949025855498, -0.006192629426106, -0.02366037997868, -0.02846285868029, -6.763843174785e-05, -4.232838782349e-05, 1.057141833658e-05, 1.036637971664e-05, 1, 5, 0, 0, 0, 0.1661578815665, -0.1670712664819, 0, 0, 0, 0, 0, 0, 0, -0.07467645129718, 0.02567562955324, -0.09442137228495, -0.03127624270213, 0.07279948297737, 0, -0, -22.62169075378, 17.88102742204, -0.0197228833262, 0, 0.02523965280601, 0, -0.0197228833262, 0, -0, 4.365348347051e-07, 3.563783039711e-08, 1.736956596815e-07, 2.027746646858e-07, 0.06779356693848, 0.5678519346397, 0.06275114074732, -0.4331889292783, 0.06200268164136, -0.0001966385184848, -0.000183616009153, -0.0002359839462789, -0.0002590127147477, 0.8000003709539, 0, 0, 0, 5.181251474871e-05, 3.329111940986e-05, 5.226874184866e-05, 3.260519863723e-05, 0.000142380958401, 7.214853318623e-05, 0.0001438948346467, 6.791763050134e-05, 53.15200005927, -6.016849362926e-05, -0.000122748848318, 0.001810650896673, 0.0004964976233145, -0.001897817391106, -0.001318484225013, 0.008111798087606, -13.36517622584, -6.766512910116, 193.5861757959, 186.4372221651, -0.0004637571380686, -1.916847489669, -0.0002564381778544, -1.917812933607, -2.586143282625e-05, -0.000346089749031, -1.917313942444, -0.0004193828489276, -1.917453321906, -0.003961588643872, -0.2032734454715, -0.004222735762359, 0.1956981835938, -0.00427624462632, 0.5480437111323, 0.5456429676128, -0.5479325167867, -0.5453632780863, 4.391061371684e-05, 0.5452195018023, 0.5453330196244, -0.5457782185592, -0.5456696021284, 0.0009613681695427, 0.000103606113469, -0.000350894431044, -0.0006608505483207, 0.01124050963327, 0.2858684555172, 0.2831370928146, 0.2846541076253, 0.2823838439568
0.4, 0.01356067365005, -0.001091990627625, 0.0008534579020611, 0.02676960664224, 1450.541006816, -0.0006503710082024, -0.002376070403353, -0.3747086149276, 0, 0.85975, 0.85975, -1.627085919257, 0.4263067786409, -0.05511437197631, -2.5328496131, -7.217938862014, -7.294175152732, 3.592370855634, -6.55613619234, 1632.845720515, 2076.648929815, 1593.110589122, 2050.662440988, 0.04, 0.03292746055843, 0.02387727918897, -0.01143611542277, 0.02935461406037, -3.996605115822e-05, 8.297481384644e-06, -1.386227799809e-06, -4.989396196845e-05, 1, 5, 0, 0, 0, 0.1661998298675, -0.1687294463729, 0, 0, 0, 0, 0, 0, 0, -0.07529162691001, 0.02567424112042, -0.09442303840271, -0.03127318814991, 0.07280309290181, -0, 0, -22.62169066838, 17.8810273828, -0.01991845414702, 0, 0.02524580385475, 0, -0.01991845414702, -0, 0, 4.325951055559e-07, 2.931003128861e-08, 1.796288421197e-07, 1.729716035219e-07, 0.05741831224274, 0.5583014467518, 0.05326350100718, -0.4429267971539, 0.05266611695304, -0.0001939465121346, -0.0001836704397947, -0.0002379806711143, -0.0002586344041447, 0.8000003968842, 0, 0, 0, 2.468336582473e-05, 3.211955834469e-05, 2.326201463915e-05, 3.123436091215e-05, 6.387224066993e-05, 6.869123343207e-05, 6.461681024397e-05, 7.15340372133e-05, 53.15200006342, -0.0006233717592748, -0.0008149199389232, 0.001451880001386, -0.0001169144981189, 9.137587792498e-05, 0.002866100721234, 0.005460031288421, -6.265983978407, 186.3422517596, -5.900244942241, -6.174864444528, -0.0004602886056152, -1.916850306452, -0.0002593846416525, -1.917809020397, -2.2773044632e-05, -0.0003425092442853, -1.917316661097, -0.0004224851178426, -1.917449338797, -0.004209303046553, -0.2041184309932, -0.004422128237608, 0.1949408772139, -0.004464553133666, 0.5479948508205, 0.545608226077, -0.5479822721369, -0.5453966548213, -5.20789110679e-06, 0.5452183291402, 0.5453452058986, -0.545779067596, -0.545656892677, 0.0009613696963484, 0.0001036010278557, -0.0003508962975332, -0.0006608473268498, 0.01125296423919, 0.2858484864049, 0.2830741861077, 0.2847139753481, 0.2824228808962
0.425, -0.01331977255728, -0.01849870183212, 0.01042052461423, 0.02140754021726, 1450.52649575, 0.0001055525967981, -0.00230318593685, -0.3728606468633, 0, 0.85975, 0.85975, 3.072483568832, 1.730904165498, -1.88790878329, -1.15242531534, -7.468523719844, -6.736238239213, 3.306782200331, -6.019074047807, 1626.768575691, 2075.053275474, 1595.63031832, 2056.02062659, 0.04, 0.009883362002223, 0.02352786225867, 0.01425186667629, 0.01827175464203, 7.571551284581e-05, 3.371391425182e-05, -4.740737208467e-05, -2.264590478352e-05, 1, 5, 0, 0, 0, 0.1662489671379, -0.1678990652241, 0, 0, 0, 0, 0, 0, 0, -0.0758615393072, 0.02567176201938, -0.09442601332094, -0.03126773412789, 0.0728095385626, -0, 0, -22.6216905828, 17.88102734348, -0.01982021184398, 0, 0.02525301518967, 0, -0.01982021184398, -0, 0, 4.327512057331e-07, 2.668664945921e-08, 1.828368356976e-07, 1.628171856764e-07, 0.05297301781772, 0.5545740577069, 0.04997582515016, -0.4465778381907, 0.04937773019941, -0.0001959177421601, -0.0001920458470998, -0.0002376275728086, -0.0002519844716657, 0.8000004228654, 0, 0, 0, 3.082152507684e-05, 1.309988000865e-05, 3.073636992131e-05, 1.15871793837e-05, 8.852995929727e-05, 5.289373034732e-05, 8.51698337766e-05, 3.521660461281e-05, 53.15200006758, -0.0008473136110561, -0.0008847050416141, -0.001426087810826, -0.001980572347271, 0.001115678445023, 0.002292008518337, 0.003514339286849, 171.882667624, 177.7040026197, 8.218601324746, 2.127062598533, -0.0004687420587666, -1.91686661697, -0.0002568755917758, -1.917798633071, -2.304149096477e-05, -0.0003508884229666, -1.917332993243, -0.0004200103643483, -1.917438944794, -0.003536666170571, -0.2039163362019, -0.003674513679263, 0.1950910393368, -0.003716497203977, 0.5480006810494, 0.5455995979455, -0.5479763816001, -0.5454053014649, -7.377252921031e-07, 0.5452424373264, 0.5453528027024, -0.5457550977715, -0.545649267473, 0.0009613724223735, 0.0001035919453558, -0.0003508996296386, -0.0006608415736298, 0.01126393519928, 0.2858750902608, 0.283081129245, 0.2847028760134, 0.2823996046454
0.45, -0.03797678480716, -0.02594982539355, 0.002608184339346, 0.001108149562098, 1450.521448563, 0.0003229791958623, -0.003303834297986, -0.3690828751275, 0, 0.85975, 0.85975, 2.929178200356, 2.858239481328, -1.433922105078, -1.015373854302, -10.17392400524, -7.681223021775, 0.5572549700948, -6.981018267187, 1619.064229284, 2063.172933115, 1607.25657762, 2066.019976176, 0.04, -0.02602605147777, 0.02163743300378, 0.002524291474855, -0.01252078930744, 7.252598755783e-05, 5.597274319096e-05, -3.574438675648e-05, -1.986420906099e-05, 1, 5, 0, 0, 0, 0.1662666753061, -0.1661984591282, 0, 0, 0, 0, 0, 0, 0, -0.07566959580854, 0.02566946617055, -0.09442876833673, -0.03126268326075, 0.07281550776774, -0, 0, -22.62169049793, 17.88102730449, -0.01961937695793, 0, 0.02525561716018, 0, -0.01961937695793, -0, 0, 4.335120879936e-07, 2.799953171359e-08, 1.808000986625e-07, 1.685970070856e-07, 0.05409224575223, 0.5560196503983, 0.05188884544528, -0.4450379033269, 0.05119041273735, -0.0002057769207772, -0.0002037080128664, -0.0002348648698397, -0.00024706059505, 0.8000004486261, 0, 0, 0, 4.47076689477e-05, 1.621904548312e-05, 4.422188900314e-05, 1.467621975459e-05, 0.0001316246953813, 6.745381907747e-05, 0.0001214497523008, 3.187995428107e-05, 53.1520000717, -0.0008092236029224, -0.0007498193022869, -0.004066002604395, -0.002778330450288, 0.0002792465020504, 0.0001186445621563, 0.001063531519621, 168.4090650453, 176.928381975, 11.63547656444, 2.901286135177, -0.0004860549904273, -1.916888632303, -0.0002525791697999, -1.917790023071, -3.040969641062e-05, -0.0003681680642998, -1.917355102594, -0.0004156771074295, -1.917430355883, -0.002399087114356, -0.2027477504646, -0.002480302853638, 0.1962128483276, -0.002528996412936, 0.5480491090157, 0.5456158409279, -0.5479275216065, -0.5453899663087, 4.64462408646e-05, 0.5452833541948, 0.5453595409932, -0.5457142947454, -0.5456428412802, 0.0009613749467531, 0.0001035835312568, -0.0003509027150319, -0.0006608362441972, 0.01125915714397, 0.2859085186968, 0.2831327659807, 0.2846523851336, 0.2823561266974
0.475, -0.03692908154104, -0.02866297063533, 0.0003891159070934, 0.001028241498861, 1450.525647701, 5.121085534262e-05, -0.003720461031119, -0.3669188954647, 0, 0.85975, 0.85975, 1.589445706803, 2.845083283776, -1.365542218555, -1.742622914964, -11.98014670158, -7.392597628655, -1.259738839889, -6.715641809742, 1617.031642715, 2055.624723387, 1613.554106579, 2069.97901696, 0.04, -0.03553278060964, -0.01057858383769, -0.001142354262701, 0.0007051247864724, 3.94044460809e-05, 5.590543598912e-05, -3.39125637895e-05, -3.402957316237e-05, 1, 5, 0, 0, 0, 0.1662529877407, -0.1652234507964, 0, 0, 0, 0, 0, 0, 0, -0.07511251458832, 0.02566748813617, -0.0944311419756, -0.03125833158531, 0.07282065065563, -0, 0, -22.62169041379, 17.88102726583, -0.01950433508531, 0, 0.02525361114981, 0, -0.01950433508531, -0, 0, 4.325492515846e-07, 2.982043066518e-08, 1.776163358084e-07, 1.736943192825e-07, 0.05564242849392, 0.5576263255521, 0.0536616410758, -0.4434849249174, 0.0529311131602, -0.0002171352860351, -0.0002147890186641, -0.0002327057677999, -0.000244914580839, 0.8000004741665, 0, 0, 0, 9.39385828936e-06, 3.041269417087e-05, 4.977685857427e-06, 3.024512471149e-05, 4.67958832222e-05, 7.89269844094e-05, 1.366629431317e-05, 6.449370838982e-05, 53.15200007579, -0.000727475226452, -0.0006575598299208, -0.003953829753788, -0.00306881464149, 4.166088044807e-05, 0.000110089167199, -0.002137107724834, 178.4392557223, 186.1797645263, 1.495710913049, -6.135045722192, -0.0005048219333701, -1.916908409985, -0.0002488825274506, -1.917785455277, -4.058716121026e-05, -0.0003869058314839, -1.917374941089, -0.0004119687610738, -1.917425779621, -0.001249987732377, -0.2014340533882, -0.001314195504836, 0.1975663164581, -0.001365139218714, 0.5480809870593, 0.5456110741405, -0.5478956067821, -0.5453950401068, 7.792425693711e-05, 0.5453071585837, 0.5453459767369, -0.5456903204287, -0.5456564901955, 0.000961377121613, 0.0001035762790318, -0.0003509053730245, -0.0006608316515169, 0.0112475305751, 0.285917280133, 0.283165568887, 0.2846250626497, 0.2823389102456
0.5, -0.01202690310171, -0.01926058677332, 0.000164313739964, 0.001918940302661, 1450.532212164, -0.0001952231188583, -0.002574065995886, -0.3672931625649, 0, 0.85975, 0.85975, 0.5767137075603, 1.759717294348, -1.531153006549, -1.285047892287, -10.67045951092, -4.50074377827, 0.09071711915427, -3.838865535255, 1619.902971472, 2058.309111501, 1609.944868358, 2066.869450492, 0.04, -0.001797845174979, -0.02194964497637, -0.0002381277385793, 0.002869566374617, 1.427186274762e-05, 3.453295633248e-05, -3.810524019854e-05, -2.512389757554e-05, 1, 5, 0, 0, 0, 0.1662308501948, -0.1653911918476, 0, 0, 0, 0, 0, 0, 0, -0.07492688727958, 0.02566544512681, -0.09443359358439, -0.03125383696487, 0.07282596247848, -0, 0, -22.62169032986, 17.88102722727, -0.0195242319321, 0, 0.02525036275748, 0, -0.0195242319321, -0, 0, 4.308043074751e-07, 2.934101666221e-08, 1.774038233495e-07, 1.692014916888e-07, 0.05429665107108, 0.5563280320974, 0.0522885145843, -0.4449126724336, 0.0516211405229, -0.0002250834193083, -0.000222683528021, -0.0002320937420168, -0.0002438745695624, 0.8000004996476, 0, 0, 0, 4.314324181783e-05, 7.336312001311e-05, 4.315835784885e-05, 7.266429386124e-05, 0.0001192816105965, 0.000158164558029, 0.0001183013582163, 0.0001551460079421, 53.15200007986, -0.0007439405395141, -0.0007715268513473, -0.001287666125046, -0.002062143922403, 1.759232905113e-05, 0.0002054522600562, -0.00502563836002, 190.8820385429, 194.6395889289, -10.95540074313, -14.49758072635, -0.0005180227210389, -1.916921348361, -0.0002475332160957, -1.917784103544, -4.742589611632e-05, -0.0004000623302913, -1.917387868805, -0.0004106629267293, -1.917424380976, -0.0004984017007219, -0.2006691236664, -0.0005668274003161, 0.1984037156367, -0.0006135867123376, 0.5480577007967, 0.5455623923103, -0.5479192741063, -0.5454431762398, 5.483861103436e-05, 0.5452904520832, 0.545304083217, -0.5457067669939, -0.5456981634736, 0.000961379367963, 0.0001035687890962, -0.0003509081184765, -0.000660826908396, 0.01124380865867, 0.2859048617062, 0.2831538964174, 0.2846406967256, 0.2823524406966
0.525, -0.001666531963779, -0.004096936517561, -0.0006813070104527, 4.485641671991e-05, 1450.535331377, -8.521110780141e-05, -0.0005448679407693, -0.3689008004918, 0, 0.85975, 0.85975, 1.236885227173, 1.139429128239, -0.8793060509944, -1.157740738142, -7.246495674573, -0.4610261726049, 3.52614930374, 0.1868161077924, 1622.145463761, 2064.231122228, 1604.184710539, 2063.464780503, 0.04, 0.001496965913794, 0.0007554022743018, 0.00699977218119, 0.002538579809357, 3.056457995695e-05, 2.229752498716e-05, -2.19667573854e-05, -2.266357824646e-05, 1, 5, 0, 0, 0, 0.166220049632, -0.1661147654753, 0, 0, 0, 0, 0, 0, 0, -0.07521622313833, 0.02566309391027, -0.09443641504139, -0.03124866428871, 0.07283207563969, -0, 0, -22.62169024567, 17.88102718859, -0.01960969747311, 0, 0.02524877645336, 0, -0.01960969747311, -0, 0, 4.299549797557e-07, 2.74520360562e-08, 1.797774620945e-07, 1.610579598775e-07, 0.05156960309268, 0.5537455747904, 0.04964999090131, -0.447549618825, 0.04903447793592, -0.0002280059407961, -0.0002270007328252, -0.0002330390149265, -0.0002444250317063, 0.8000005252082, 0, 0, 0, 5.551562490818e-05, 7.011849283093e-05, 5.491171113456e-05, 7.001673363192e-05, 0.0001510753572117, 0.0001501022448659, 0.0001510967105801, 0.0001497392576772, 53.15200008395, -0.0007650430978225, -0.0008401660535849, -0.0001784280406949, -0.0004386404650902, -7.294446048975e-05, 4.802573681082e-06, -0.006414673803495, 193.9276885615, 194.0270509097, 194.3244407093, 194.0118149618, -0.0005241120923978, -1.916928381739, -0.0002497553570487, -1.917785238432, -5.025716498964e-05, -0.000406124283356, -1.917394872492, -0.0004129186297601, -1.917425465683, -0.0002570168769348, -0.2007060551953, -0.0003232142051894, 0.1983903636355, -0.0003665704161853, 0.5479975994085, 0.5454945900259, -0.5479796713818, -0.5455105207744, -5.223927740528e-06, 0.5452432879094, 0.5452493359906, -0.5457538523668, -0.5457527422716, 0.0009613819533064, 0.0001035601719641, -0.0003509112783855, -0.0006608214509441, 0.01124930877876, 0.2858952392044, 0.2831281515447, 0.2846656348221, 0.2823672602343
0.55, -0.0003640818800273, -0.003560200520122, -0.001872787014256, -0.001285660231364, 1450.534073016, 0.0004985566174371, 0.0009861563042012, -0.3700668039974, 0, 0.85975, 0.85975, 1.397146826961, 1.601081569744, 1.331063049689, 0.3016923557158, -4.365357095009, 2.281158570826, 6.388398611815, 2.95483619954, 1620.073980377, 2064.267539883, 1604.803449692, 2065.267045457, 0.04, 0.0005466943557269, -0.003934499891754, 0.009275300484861, 0.007503144244741, 3.456434410113e-05, 3.133306213195e-05, 3.32371467136e-05, 5.901515489902e-06, 1, 5, 0, 0, 0, 0.1662240495562, -0.1666399968966, 0, 0, 0, 0, 0, 0, 0, -0.07552366337517, 0.02566090494047, -0.09443904180247, -0.03124384855542, 0.07283776695944, -0, -0, -22.62169016114, 17.88102714975, -0.01967168480953, 0, 0.02524936213645, 0, -0.01967168480953, -0, -0, 4.309268292392e-07, 2.683223538962e-08, 1.811664881588e-07, 1.601433389812e-07, 0.05102518972585, 0.5533173781499, 0.04930969478231, -0.4479298780587, 0.04864931011057, -0.0002292978148494, -0.0002290168454548, -0.0002344421197182, -0.0002455623715347, 0.8000005508727, 0, 0, 0, 2.987656299051e-05, 3.101030809435e-05, 2.942329893486e-05, 3.202360556248e-05, 8.138732747877e-05, 6.637198434034e-05, 8.12084181282e-05, 6.86160857398e-05, 53.15200008806, -0.0005639080404189, -0.0006100651174176, -3.898060038313e-05, -0.0003811745691608, -0.0002005108361887, -0.0001376498267464, -0.00614322583031, 187.5232826416, 186.3006581785, 187.8601725062, 186.4917625505, -0.000526754703643, -1.916932457685, -0.0002544743422777, -1.917788830741, -5.249567076468e-05, -0.0004087776657394, -1.917398961458, -0.0004176085119426, -1.917429040157, -0.0003451109260166, -0.2009363753646, -0.0003980015523163, 0.1981289487255, -0.0004445984227134, 0.5479471544706, 0.5454483560171, -0.5480300435476, -0.5455571454083, -5.609804706814e-05, 0.5451948849694, 0.5452047836916, -0.5458023531517, -0.545797458101, 0.0009613843603139, 0.0001035521507142, -0.0003509142202761, -0.0006608163707574, 0.01125449292069, 0.2859042682179, 0.2831279866163, 0.2846629270234, 0.2823594309752
0.575, 7.294046588376e-05, -0.00035074705548, -3.427578300257e-05, -0.0009922966198762, 1450.531080441, 0.0005575341228577, 0.001399063645814, -0.3701196759514, 0, 0.85975, 0.85975, 1.322788468888, 0.7878841498316, 1.376064906775, 1.564792419534, -3.508014870938, 2.902309875147, 7.243421580641, 3.657846767712, 1614.689238817, 2057.947849534, 1611.110763678, 2071.526803794, 0.04, -0.0007523502971317, -0.00592031812455, -8.191667632295e-05, 0.003196216734686, 3.283004948198e-05, 1.54632779582e-05, 3.423084260055e-05, 3.052410111456e-05, 1, 5, 0, 0, 0, 0.1662340975737, -0.1666641741366, 0, 0, 0, 0, 0, 0, 0, -0.07564270371363, 0.02565986074186, -0.0944402948395, -0.03124155131868, 0.07284048187492, -0, -0, -22.62169007646, 17.88102711085, -0.01967449560239, 0, 0.02525083633128, 0, -0.01967449560239, -0, -0, 4.334842530884e-07, 2.826027189239e-08, 1.805639360218e-07, 1.695827558286e-07, 0.05391472462316, 0.5561451810652, 0.05225872165727, -0.4450292868989, 0.05147271376289, -0.0002295900105415, -0.0002299684208505, -0.0002359102409823, -0.0002464197170686, 0.8000005765797, 0, 0, 0, 3.011892859936e-07, 2.259077484982e-06, 4.372831245492e-07, 9.584923606928e-07, 9.01132499019e-07, 4.405945000732e-06, 1.196813367191e-06, 3.75445918605e-06, 53.15200009217, -2.284700593208e-05, -0.0001868825836965, 7.809405818716e-06, -3.755290102381e-05, -3.669753078462e-06, -0.000106240711562, -0.005015359390398, -0.1353079635992, 0.314033586612, 180.0837024567, 179.9324928626, -0.0005272545589319, -1.916933298837, -0.0002571109317542, -1.917791708401, -5.344682858379e-05, -0.0004093272928927, -1.91739985466, -0.0004201624213581, -1.917431939579, -0.0004522626781527, -0.2010400981801, -0.0004972226738837, 0.1979838061604, -0.0005526356860251, 0.5479320074438, 0.5454371416832, -0.5480449454854, -0.5455694651613, -7.187373546536e-05, 0.5451654473503, 0.5451789777727, -0.5458318962872, -0.5458237006656, 0.0009613855085487, 0.0001035483241417, -0.0003509156235016, -0.0006608139475756, 0.011255489135, 0.2859275440204, 0.2831554467335, 0.2846356157927, 0.2823322048882
0.6, 9.039330478091e-06, 0.001318135235882, 0.0009590759023195, -0.0007962701067411, 1450.529188665, 0.000140733246053, 0.001207179938845, -0.3694737768709, 0, 0.85975, 0.85975, 1.280131373654, -0.8350980286828, -0.1913823287553, 1.720306746988, -3.924484386403, 2.578373970399, 6.835073829747, 3.400577782768, 1610.540355007, 2051.750206453, 1616.604199046, 2076.789380316, 0.04, 0.0008479498262205, -0.007643093659974, -0.007079289884579, 0.001529271620339, 3.185157584728e-05, -1.643767524391e-05, -4.746962991484e-06, 3.347807340141e-05, 1, 5, 0, 0, 0, 0.1662405832896, -0.1663735428981, 0, 0, 0, 0, 0, 0, 0, -0.07559869015683, 0.02566058150328, -0.09443942992662, -0.03124313699385, 0.07283860789566, 0, -0, -22.62168999187, 17.88102707198, -0.01964015816931, 0, 0.02525178857342, 0, -0.01964015816931, 0, -0, 4.36167533195e-07, 3.048103106797e-08, 1.789700889597e-07, 1.822954898941e-07, 0.05815334356272, 0.5601290935173, 0.05623668694381, -0.4410219461761, 0.05534989431306, -0.0002292768908274, -0.0002295492834205, -0.0002360527086082, -0.0002468184654823, 0.8000006022618, 0, 0, 0, 7.309468665513e-06, 4.183024846244e-06, 7.494556750529e-06, 3.034269772226e-06, 2.002804887865e-05, 1.039480063509e-05, 2.088111286405e-05, 6.796863466981e-06, 53.15200009628, 0.000300242715928, 0.0003536671958363, 9.678002351315e-07, 0.0001411267786164, 0.0001026839195694, -8.525303930419e-05, -0.003854073480631, 177.8879180742, 0.738637012336, 2.108551703716, 179.3900389114, -0.0005266490643237, -1.91693083991, -0.0002557117608814, -1.917792579879, -5.25959303088e-05, -0.0004087700713697, -1.917397436052, -0.0004186960222841, -1.917432849573, -0.0004346948528319, -0.2008320208395, -0.0004922178179952, 0.1981798523421, -0.000554734021842, 0.5479389812503, 0.5454416798102, -0.5480378482411, -0.545565823359, -6.514548457124e-05, 0.545152430951, 0.5451638375171, -0.5458449156373, -0.5458391867866, 0.0009613847160371, 0.0001035509647804, -0.0003509146545905, -0.0006608156206355, 0.01125353513886, 0.2859453879633, 0.2831823769994, 0.2846118870918, 0.2823093046368
0.625, -0.0004223082781503, 0.005386281852876, 0.001101765358811, -0.001312370726081, 1450.529276235, -9.49205351816e-05, 0.001206501170952, -0.368885256373, 0, 0.85975, 0.85975, 1.751232688077, -1.793893097429, -1.555545693484, 1.837359177423, -4.111900173215, 2.753219396933, 6.656920029446, 3.592688611426, 1610.815584433, 2050.483257108, 1617.296489635, 2076.941340392, 0.04, 0.002854731777246, 0.006712253619581, -0.004438387683196, 0.002220975372439, 4.35664432721e-05, -3.533014283948e-05, -3.856485060361e-05, 3.575375013372e-05, 1, 5, 0, 0, 0, 0.1662404049087, -0.1661085074131, 0, 0, 0, 0, 0, 0, 0, -0.07544736822871, 0.02566158927119, -0.09443822060634, -0.03124535408317, 0.07283598769983, 0, -0, -22.62168990742, 17.88102703319, -0.01960887111958, 0, 0.02525176300199, 0, -0.01960887111958, 0, -0, 4.371483733863e-07, 3.200156191519e-08, 1.776731172371e-07, 1.897005979461e-07, 0.06095294770404, 0.5626264692396, 0.05857596588255, -0.4385557177311, 0.05766017287879, -0.0002287381019687, -0.000228180217917, -0.0002353698422659, -0.0002470204829192, 0.8000006278972, 0, 0, 0, 3.533037254263e-06, 1.192454632579e-05, 3.762890459169e-06, 1.192850142261e-05, 9.840458859373e-06, 2.595354186297e-05, 1.094340509204e-05, 2.557541958048e-05, 53.15200010038, 0.0002767344699889, 0.0003134289001773, -4.52146375091e-05, 0.0005766848392513, 0.000117961034382, -0.0001405095986212, -0.002820821936116, 180.7090490969, -2.419327724764, -0.7483787699965, 182.4150094179, -0.0005261884693577, -1.916927382566, -0.000253039499647, -1.917793062404, -5.174672381692e-05, -0.0004083358526697, -1.917393981615, -0.0004160011573273, -1.917433345673, -0.0003435746223071, -0.2005742725528, -0.0004296313426841, 0.1984575154663, -0.0004943102459244, 0.547941828598, 0.5454382193538, -0.5480350485697, -0.5455695478611, -6.198375348011e-05, 0.5451428689224, 0.5451488133436, -0.5458544056389, -0.5458543201562, 0.0009613836078571, 0.0001035546571889, -0.0003509133001333, -0.0006608179591729, 0.01125015095606, 0.2859440685504, 0.2831878775868, 0.2846089727217, 0.2823086303672
0.65, 0.0003099906234543, 0.002897379511427, 0.0001555543589757, -0.001656325709419, 1450.530419138, -0.0001087219723452, 0.001570656317061, -0.3687609326077, 0, 0.85975, 0.85975, 1.56311251451, -1.577778590193, -1.69153631684, 1.849971021016, -3.60922139608, 3.596987753203, 7.166132320891, 4.415210379881, 1613.79302548, 2053.28114436, 1614.489744115, 2073.509565098, 0.04, 0.001763596283873, 0.0009512029201523, -0.003584139133145, -0.0008427680132494, 3.881578854231e-05, -3.103662949441e-05, -4.200936258004e-05, 3.605567868278e-05, 1, 5, 0, 0, 0, 0.1662365880162, -0.1660523815324, 0, 0, 0, 0, 0, 0, 0, -0.07530932574544, 0.02566230426704, -0.09443736261219, -0.03124692707395, 0.07283412871118, 0, -0, -22.62168982307, 17.88102699443, -0.01960226179601, 0, 0.02525120311553, 0, -0.01960226179601, 0, -0, 4.366896667319e-07, 3.235714783709e-08, 1.771873137465e-07, 1.903497154137e-07, 0.0615875019944, 0.5630594955428, 0.05880251216716, -0.4381768699011, 0.05791360190003, -0.000228699600618, -0.0002264589194473, -0.0002344463177783, -0.0002474014583118, 0.800000653507, 0, 0, 0, 9.937246311359e-06, 1.67114746011e-05, 1.012589495067e-05, 1.648542601557e-05, 2.715795015496e-05, 3.620575809222e-05, 2.770073317286e-05, 3.516726863819e-05, 53.15200010448, 0.0001666910061914, 0.000181419611117, 3.318929416231e-05, 0.0003102093212789, 1.665450174184e-05, -0.000177335303197, -0.001609809097399, 182.390767768, -3.425691141015, -2.434533575572, 183.3458011585, -0.0005259587957366, -1.916924539722, -0.0002511931702815, -1.917793760738, -5.139352203966e-05, -0.0004081074283623, -1.91739111431, -0.0004141705988338, -1.917434034043, -0.0002799490617766, -0.2004090435983, -0.0003938348500861, 0.1986548122222, -0.0004567990228707, 0.547932643413, 0.5454239682146, -0.5480443771816, -0.5455835631775, -7.064359640819e-05, 0.5451316574896, 0.5451334550879, -0.5458655257218, -0.545869601941, 0.0009613828216491, 0.0001035572773411, -0.0003509123392497, -0.0006608196185674, 0.01124755168902, 0.2859311018345, 0.2831757143632, 0.2846211909772, 0.2823235481996
0.675, -0.0002142968548514, 0.000624267233972, 0.001282977562543, -0.003465014432278, 1450.531298421, -0.0001328236000382, 0.001828460500879, -0.3690032548171, 0, 0.85975, 0.85975, 1.140222670456, -1.489873044865, -1.228178955746, 1.550390752554, -3.220657043698, 4.171187732906, 7.556622323909, 4.955020446526, 1615.649820203, 2055.981841584, 1612.082779884, 2070.972180393, 0.04, 0.0008773573356832, -0.0003401147916285, 0.002871898458119, -0.008365988979008, 2.82822543775e-05, -2.927293557554e-05, -3.054786419112e-05, 3.025188593179e-05, 1, 5, 0, 0, 0, 0.1662335849803, -0.1661613971433, 0, 0, 0, 0, 0, 0, 0, -0.07526265462304, 0.02566257750447, -0.09443703472762, -0.03124752819624, 0.07283341829409, 0, -0, -22.62168973869, 17.88102695566, -0.0196151441801, 0, 0.02525076226332, 0, -0.0196151441801, 0, -0, 4.3621766297e-07, 3.223059695063e-08, 1.772398439482e-07, 1.892299052726e-07, 0.06144261136151, 0.5628428672414, 0.05843112584397, -0.4384398490336, 0.05759188742381, -0.0002288786691943, -0.0002255723918001, -0.0002337783912502, -0.0002478227221385, 0.8000006791226, 0, 0, 0, 2.958944460722e-07, 1.821996437708e-06, 6.429104524068e-07, 2.721205673035e-06, 1.096368697002e-06, 4.12184586521e-06, 6.6991334771e-07, 3.127402955193e-06, 53.15200010858, 5.661221354287e-06, 1.840359422537e-05, -2.29437951202e-05, 6.683746957668e-05, 0.0001373626055278, -0.0003709834252017, -8.017839604207e-05, 179.7410577906, -0.373319835076, 0.2328952872518, 180.2767640437, -0.0005258541663798, -1.916923046882, -0.0002504602475298, -1.91779420371, -5.122475514653e-05, -0.0004079996093071, -1.917389600429, -0.0004134532728537, -1.917434466423, -0.0002536064555674, -0.2003802849779, -0.0003835746098421, 0.1987095058989, -0.0004431702268173, 0.5479256967712, 0.5454144125697, -0.5480514732906, -0.5455926814022, -7.7315686179e-05, 0.545125867647, 0.5451257461836, -0.5458712339651, -0.5458771422187, 0.0009613825212296, 0.0001035582793686, -0.0003509119721542, -0.0006608202530416, 0.01124685308143, 0.2859230394898, 0.2831639751052, 0.2846316460904, 0.2823345812641
0.7, -0.000173386173873, 0.0001921182657552, -0.0001087846480471, -0.0004140872357362, 1450.531323891, -4.092947879309e-05, 0.001540672064376, -0.3692865991229, 0, 0.85975, 0.85975, 1.33915034689, -1.144149062077, -0.9429999128528, 1.396221970528, -3.759550757473, 3.65925125584, 7.020442362799, 4.425046816192, 1615.022884503, 2056.032919612, 1612.2213561, 2071.374785099, 0.04, 0.0007120345856039, -0.000614018905241, 0.001508272431611, 0.002522318280092, 3.322975763701e-05, -2.247891588912e-05, -2.345170914431e-05, 2.723829299721e-05, 1, 5, 0, 0, 0, 0.1662334436244, -0.1662889905098, 0, 0, 0, 0, 0, 0, 0, -0.07527144458248, 0.02566243440336, -0.09443720644877, -0.03124721337383, 0.07283379035684, 0, -0, -22.62168965425, 17.88102691687, -0.01963020739129, 0, 0.02525074123484, 0, -0.01963020739129, 0, -0, 4.366083511276e-07, 3.244225718452e-08, 1.771269302411e-07, 1.907024122843e-07, 0.06195214833357, 0.5633234181332, 0.05884116039615, -0.4379817823629, 0.05803615841632, -0.0002289706378968, -0.0002252142979702, -0.0002336996003297, -0.0002482752642612, 0.8000007047583, 0, 0, 0, 1.578843091096e-05, 2.033956530254e-05, 1.57492224777e-05, 2.071140603923e-05, 4.314549814507e-05, 4.366032448062e-05, 4.311348096446e-05, 4.415645433947e-05, 53.15200011268, -7.913267655927e-05, -8.823401410089e-05, -1.85636735209e-05, 2.056923388536e-05, -1.164708030244e-05, -4.433444767638e-05, 0.001451187253174, 175.6872394632, 4.160981064702, 176.0901168587, 175.7959722781, -0.0005262063445678, -1.916922766583, -0.0002506470198316, -1.91779485604, -5.147339155571e-05, -0.0004083580427949, -1.917389320646, -0.0004136319904312, -1.917435119159, -0.0002508292198086, -0.2003459886142, -0.0003869594818937, 0.1987559905976, -0.0004441693667542, 0.5479351600144, 0.5454229756609, -0.5480420897241, -0.5455838211015, -6.78713929395e-05, 0.5451329141454, 0.5451322838218, -0.5458641334866, -0.5458704744951, 0.0009613826785993, 0.0001035577555424, -0.0003509121645645, -0.0006608199211313, 0.01124700441437, 0.2859257418337, 0.2831637504289, 0.2846310608371, 0.2823328289266
